{"type":"FeatureCollection","crs":{"type":"name","properties":{"name":"EPSG:4326"}},"features":[{"type":"Feature","id":281825,"geometry":{"type":"Point","coordinates":[153.324827068152,-27.9937236564539,0]},"properties":{"OBJECTID":281825,"GlobalID":"adb414d7-b472-46f8-be6c-cd5d8b136da3","SUBURB":"Nerang","STREET":"Beaudesert Nerang Road Service Road","LOCATION":"Adjacent property no.146","SURVEY_DATE":"Tue, 31 Jan 2023 00:00:00 GMT","VPD":125,"DIRECTION_1A":"East 60","DIRECTION_2A":"West 65"}},{"type":"Feature","id":281826,"geometry":{"type":"Point","coordinates":[153.327627916769,-27.993633416875,0]},"properties":{"OBJECTID":281826,"GlobalID":"7ee9384c-f503-4bde-9ef6-ca60ee673bac","SUBURB":"Nerang","STREET":"Beaudesert Nerang Road Service Road","LOCATION":"Adjacent property no.126","SURVEY_DATE":"Tue, 31 Jan 2023 00:00:00 GMT","VPD":69,"DIRECTION_1A":"East 37","DIRECTION_2A":"West 31"}},{"type":"Feature","id":281827,"geometry":{"type":"Point","coordinates":[153.373176622144,-28.0128661235062,0]},"properties":{"OBJECTID":281827,"GlobalID":"9eaf1977-90ac-485d-8c96-ac5e213f77e0","SUBURB":"Carrara","STREET":"Lakeside Drive","LOCATION":"East of the western Emerald Lake carpark","SURVEY_DATE":"Mon, 20 Feb 2023 00:00:00 GMT","VPD":1161,"DIRECTION_1A":"East 537","DIRECTION_2A":"West 623"}},{"type":"Feature","id":281828,"geometry":{"type":"Point","coordinates":[153.43617084286,-28.0885738185438,0]},"properties":{"OBJECTID":281828,"GlobalID":"689766d1-03f2-4e6a-83ee-eec88778aa70","SUBURB":"Burleigh Waters","STREET":"Dunlin Drive","LOCATION":"Adjacent property no.90","SURVEY_DATE":"Mon, 20 Feb 2023 00:00:00 GMT","VPD":6704,"DIRECTION_1A":"East 3287","DIRECTION_2A":"West 3416"}},{"type":"Feature","id":281829,"geometry":{"type":"Point","coordinates":[153.368316980835,-28.0952732787074,0]},"properties":{"OBJECTID":281829,"GlobalID":"b520dec2-8717-4965-ae5b-0ad60d3779ab","SUBURB":"Bonogin","STREET":"Bonogin Road","LOCATION":"Adjacent property no.27","SURVEY_DATE":"Mon, 20 Feb 2023 00:00:00 GMT","VPD":11276,"DIRECTION_1A":"North 5694","DIRECTION_2A":"South 5582"}},{"type":"Feature","id":281830,"geometry":{"type":"Point","coordinates":[153.4401312877,-28.0847120171036,0]},"properties":{"OBJECTID":281830,"GlobalID":"47d1ecd7-b435-46a1-a0ef-2e6471e5d6ae","SUBURB":"Burleigh Waters","STREET":"Burleigh Street","LOCATION":"Adjacent property no.108","SURVEY_DATE":"Mon, 20 Feb 2023 00:00:00 GMT","VPD":3876,"DIRECTION_1A":"East 1935","DIRECTION_2A":"West "}},{"type":"Feature","id":281831,"geometry":{"type":"Point","coordinates":[153.427489950502,-28.0890173733155,0]},"properties":{"OBJECTID":281831,"GlobalID":"c8df1ab0-6f70-47ab-a43b-2e48141093e0","SUBURB":"Burleigh Waters","STREET":"Harrier Drive","LOCATION":"Adjacent property no.38","SURVEY_DATE":"Mon, 20 Feb 2023 00:00:00 GMT","VPD":737,"DIRECTION_1A":"North 357","DIRECTION_2A":"South 380"}},{"type":"Feature","id":281832,"geometry":{"type":"Point","coordinates":[153.343267285651,-27.9473425789817,0]},"properties":{"OBJECTID":281832,"GlobalID":"e8e03f84-f2d9-455e-9b40-27218c85cbb2","SUBURB":"Arundel","STREET":"Newheath Drive","LOCATION":"Adjacent property no.51","SURVEY_DATE":"Tue, 28 Feb 2023 00:00:00 GMT","VPD":1082,"DIRECTION_1A":"North 554","DIRECTION_2A":"South 528"}},{"type":"Feature","id":281833,"geometry":{"type":"Point","coordinates":[153.464347469629,-28.1110974605037,0]},"properties":{"OBJECTID":281833,"GlobalID":"b32f5c42-189d-48a5-a2a8-e614e9c2089a","SUBURB":"Palm Beach","STREET":"Walker Avenue","LOCATION":"Between Townson Avenue and Brooke Avenue","SURVEY_DATE":"Mon, 27 Feb 2023 00:00:00 GMT","VPD":767,"DIRECTION_1A":"East 300","DIRECTION_2A":"West 467"}},{"type":"Feature","id":281834,"geometry":{"type":"Point","coordinates":[153.41057768276,-28.0069780407812,0]},"properties":{"OBJECTID":281834,"GlobalID":"c6911269-c733-439b-92d5-0da7c8a87c70","SUBURB":"Bundall","STREET":"Upton Street","LOCATION":"Adjacent property no.45","SURVEY_DATE":"Wed, 22 Feb 2023 00:00:00 GMT","VPD":10448,"DIRECTION_1A":"North 4778","DIRECTION_2A":"South 5670"}},{"type":"Feature","id":281835,"geometry":{"type":"Point","coordinates":[153.472885369376,-28.128668244175,0]},"properties":{"OBJECTID":281835,"GlobalID":"c4f3e968-8891-4a6d-8e3f-399410248107","SUBURB":"Palm Beach","STREET":"Laguna Avenue","LOCATION":"Adjacent property no.68","SURVEY_DATE":"Mon, 27 Feb 2023 00:00:00 GMT","VPD":2924,"DIRECTION_1A":"East 1214","DIRECTION_2A":"West 1711"}},{"type":"Feature","id":281836,"geometry":{"type":"Point","coordinates":[153.349633138688,-27.7356308683665,0]},"properties":{"OBJECTID":281836,"GlobalID":"19cf937b-7313-4d1a-9fbd-292fe4284073","SUBURB":"Steiglitz","STREET":"Cabbage Tree Point","LOCATION":"Between Walkers Jetty Road and property no.275","SURVEY_DATE":"Thu, 23 Feb 2023 00:00:00 GMT","VPD":1439,"DIRECTION_1A":"East 720","DIRECTION_2A":"West 719"}},{"type":"Feature","id":281837,"geometry":{"type":"Point","coordinates":[153.394688895514,-28.0094904248315,0]},"properties":{"OBJECTID":281837,"GlobalID":"7ce09a46-bf33-46f0-a7e2-f26b80f20cbe","SUBURB":"Benowa","STREET":"Ashmore Road","LOCATION":"Adjacent property no.172","SURVEY_DATE":"Fri, 24 Feb 2023 00:00:00 GMT","VPD":21724,"DIRECTION_1A":"East 12188","DIRECTION_2A":"West 9536"}},{"type":"Feature","id":281838,"geometry":{"type":"Point","coordinates":[153.382776111264,-27.8995693878063,0]},"properties":{"OBJECTID":281838,"GlobalID":"ba722f64-43fb-4f4f-87ac-fa09ee3dd85e","SUBURB":"Coombabah","STREET":"Hansford Road","LOCATION":"Adjacent property no.51","SURVEY_DATE":"Wed, 01 Mar 2023 00:00:00 GMT","VPD":6173,"DIRECTION_1A":"East 3158","DIRECTION_2A":"West 3014"}},{"type":"Feature","id":281839,"geometry":{"type":"Point","coordinates":[153.406722646097,-27.9860637110828,0]},"properties":{"OBJECTID":281839,"GlobalID":"ca2cb555-aaac-4425-89d8-1603a18af2c2","SUBURB":"Southport","STREET":"Benowa Road","LOCATION":"North of Drury Avenue","SURVEY_DATE":"Mon, 27 Feb 2023 00:00:00 GMT","VPD":11697,"DIRECTION_1A":"North 5918","DIRECTION_2A":"South 5779"}},{"type":"Feature","id":281840,"geometry":{"type":"Point","coordinates":[153.39827353562,-27.8958069633596,0]},"properties":{"OBJECTID":281840,"GlobalID":"b9c4a342-e4e5-4d71-883a-36c57a8d2131","SUBURB":"Hollywell","STREET":"Bluegum Avenue","LOCATION":"Adjacent property no.9","SURVEY_DATE":"Mon, 27 Feb 2023 00:00:00 GMT","VPD":212,"DIRECTION_1A":"East 88","DIRECTION_2A":"West 124"}},{"type":"Feature","id":281841,"geometry":{"type":"Point","coordinates":[153.405036997456,-27.9101653314973,0]},"properties":{"OBJECTID":281841,"GlobalID":"2e184529-4f41-4b8e-975a-6a34b72c3514","SUBURB":"Runaway Bay","STREET":"Daru Avenue","LOCATION":"Adjacent property no.4","SURVEY_DATE":"Mon, 27 Feb 2023 00:00:00 GMT","VPD":516,"DIRECTION_1A":"North 256","DIRECTION_2A":"South 260"}},{"type":"Feature","id":281842,"geometry":{"type":"Point","coordinates":[153.245598360397,-27.7617137111116,0]},"properties":{"OBJECTID":281842,"GlobalID":"86dd9115-ca98-4a8b-a37e-0a980c897139","SUBURB":"Yatala","STREET":"Cuthbert Drive","LOCATION":"South of Brookside Circuit","SURVEY_DATE":"Wed, 22 Feb 2023 00:00:00 GMT","VPD":7661,"DIRECTION_1A":"North 3905","DIRECTION_2A":"South 3756"}},{"type":"Feature","id":281843,"geometry":{"type":"Point","coordinates":[153.304998995994,-27.8994554391586,0]},"properties":{"OBJECTID":281843,"GlobalID":"5822f87c-9d7f-4bc1-8b04-a44a35623816","SUBURB":"Oxenford","STREET":"Michigan Drive","LOCATION":"Adjacent property no.88","SURVEY_DATE":"Thu, 23 Feb 2023 00:00:00 GMT","VPD":7377,"DIRECTION_1A":"East 3909","DIRECTION_2A":"West 3468"}},{"type":"Feature","id":281844,"geometry":{"type":"Point","coordinates":[153.386345661736,-27.9174271871514,0]},"properties":{"OBJECTID":281844,"GlobalID":"211cb373-6170-4a7d-b0a9-a9e7bc0c8c7c","SUBURB":"Coombabah","STREET":"Pine Ridge Road","LOCATION":"Adjacent property no.445","SURVEY_DATE":"Mon, 27 Feb 2023 00:00:00 GMT","VPD":13147,"DIRECTION_1A":"North 6783","DIRECTION_2A":"South 6365"}},{"type":"Feature","id":281845,"geometry":{"type":"Point","coordinates":[153.303199852644,-27.8735038559069,0]},"properties":{"OBJECTID":281845,"GlobalID":"94f621a9-172d-4ce2-9d7a-9c188e099fc2","SUBURB":"Upper Coomera","STREET":"Roe Street","LOCATION":"Between Prefect Close and Fallow Court","SURVEY_DATE":"Mon, 27 Feb 2023 00:00:00 GMT","VPD":2505,"DIRECTION_1A":"East 1414","DIRECTION_2A":"West 1091"}},{"type":"Feature","id":281846,"geometry":{"type":"Point","coordinates":[153.380572935561,-27.984820199671,0]},"properties":{"OBJECTID":281846,"GlobalID":"484de529-617f-488d-bf4e-2b2af3888bf6","SUBURB":"Ashmore","STREET":"Patura Drive","LOCATION":"Adjacent property no.10","SURVEY_DATE":"Mon, 27 Feb 2023 00:00:00 GMT","VPD":830,"DIRECTION_1A":"North 425","DIRECTION_2A":"South 405"}},{"type":"Feature","id":281847,"geometry":{"type":"Point","coordinates":[153.39036366791,-27.9549366687712,0]},"properties":{"OBJECTID":281847,"GlobalID":"255f76d3-1f51-4f4e-ba30-c5a86e955ff6","SUBURB":"Southport","STREET":"Musgrave Avenue","LOCATION":"Adjacent property no.139","SURVEY_DATE":"Mon, 27 Feb 2023 00:00:00 GMT","VPD":13255,"DIRECTION_1A":"East 6569","DIRECTION_2A":"West 6686"}},{"type":"Feature","id":281848,"geometry":{"type":"Point","coordinates":[153.388402231717,-27.9128420058755,0]},"properties":{"OBJECTID":281848,"GlobalID":"3ff72de9-b188-4225-bbe6-bb52f888d8ca","SUBURB":"Runaway Bay","STREET":"Lae Drive","LOCATION":"Adjacent property no.128","SURVEY_DATE":"Mon, 27 Feb 2023 00:00:00 GMT","VPD":11282,"DIRECTION_1A":"East 4631","DIRECTION_2A":"West 6651"}},{"type":"Feature","id":281849,"geometry":{"type":"Point","coordinates":[153.420712501343,-28.0928462371361,0]},"properties":{"OBJECTID":281849,"GlobalID":"46a629a4-1842-45b8-9106-57b632ff6b6c","SUBURB":"Varsity Lakes","STREET":"Mattocks Road","LOCATION":"Adjacent property no.78","SURVEY_DATE":"Mon, 06 Mar 2023 00:00:00 GMT","VPD":6995,"DIRECTION_1A":"North 3206","DIRECTION_2A":"South 3789"}},{"type":"Feature","id":281850,"geometry":{"type":"Point","coordinates":[153.422441928236,-28.0881101877824,0]},"properties":{"OBJECTID":281850,"GlobalID":"b08480a2-f7db-4dcb-b126-cd15d7dd6797","SUBURB":"Burleigh Waters","STREET":"Mattocks Road","LOCATION":"Adjacent property no.122","SURVEY_DATE":"Mon, 06 Mar 2023 00:00:00 GMT","VPD":7503,"DIRECTION_1A":"North 3485","DIRECTION_2A":"South 4019"}},{"type":"Feature","id":281851,"geometry":{"type":"Point","coordinates":[153.417793667384,-28.0970794985285,0]},"properties":{"OBJECTID":281851,"GlobalID":"35a9ef8c-1522-4bbe-a159-4a20839c7d17","SUBURB":"Varisty Lakes","STREET":"Grevillea Drive","LOCATION":"Adjacent property no.28","SURVEY_DATE":"Mon, 06 Mar 2023 00:00:00 GMT","VPD":2114,"DIRECTION_1A":"East 1273","DIRECTION_2A":"West 841"}},{"type":"Feature","id":281852,"geometry":{"type":"Point","coordinates":[153.434305940076,-28.0336685144163,0]},"properties":{"OBJECTID":281852,"GlobalID":"173ec9d8-1aac-4897-8281-4818f86bfc6a","SUBURB":"Broadbeach","STREET":"Margaret Avenue","LOCATION":"West of Old Burleigh Road","SURVEY_DATE":"Tue, 28 Feb 2023 00:00:00 GMT","VPD":5643,"DIRECTION_1A":"East 2180","DIRECTION_2A":"West 3463"}},{"type":"Feature","id":281853,"geometry":{"type":"Point","coordinates":[153.419706161903,-28.098010763739,0]},"properties":{"OBJECTID":281853,"GlobalID":"6873a34f-5e31-4610-b98f-e5912e4ba119","SUBURB":"Burleigh Waters","STREET":"Mattocks Road","LOCATION":"Adjacent property no.27","SURVEY_DATE":"Mon, 06 Mar 2023 00:00:00 GMT","VPD":9357,"DIRECTION_1A":"North 4148","DIRECTION_2A":"South 5209"}},{"type":"Feature","id":281854,"geometry":{"type":"Point","coordinates":[153.334753329667,-28.0128521389863,0]},"properties":{"OBJECTID":281854,"GlobalID":"a8c6f778-5c1a-4a27-8bf5-c7cb6fdbc602","SUBURB":"Nerang","STREET":"Alexander Drive","LOCATION":"Northwest of Glengarry Close","SURVEY_DATE":"Tue, 28 Feb 2023 00:00:00 GMT","VPD":15384,"DIRECTION_1A":"North 7439","DIRECTION_2A":"South 7945"}},{"type":"Feature","id":281855,"geometry":{"type":"Point","coordinates":[153.22838610775,-27.7340646427025,0]},"properties":{"OBJECTID":281855,"GlobalID":"1cae694d-23c4-4750-a10b-8b7438b723f9","SUBURB":"Stapylton","STREET":"Henry Hester Drive","LOCATION":"Northwest of Stapytlon Jacobs Well Road","SURVEY_DATE":"Tue, 28 Feb 2023 00:00:00 GMT","VPD":8922,"DIRECTION_1A":"North 4214","DIRECTION_2A":"South 4708"}},{"type":"Feature","id":281856,"geometry":{"type":"Point","coordinates":[153.421954201445,-28.0105522210417,0]},"properties":{"OBJECTID":281856,"GlobalID":"4c4556b1-215e-4a77-94ac-f6bd5680e03f","SUBURB":"SURFERS PARADISE","STREET":"Saint Pauls Pl","LOCATION":"36 Saint Pauls Pl","SURVEY_DATE":"Mon, 17 Apr 2023 14:00:00 GMT","VPD":807,"DIRECTION_1A":"North 447","DIRECTION_2A":"South 360"}},{"type":"Feature","id":281857,"geometry":{"type":"Point","coordinates":[153.421943220942,-28.0115204756621,0]},"properties":{"OBJECTID":281857,"GlobalID":"a33e3c61-7194-42e2-a2b7-ba2070c0d021","SUBURB":"SURFERS PARADISE","STREET":"St Andrews Avenue","LOCATION":"Outside no. 37","SURVEY_DATE":"Mon, 17 Apr 2023 14:00:00 GMT","VPD":692,"DIRECTION_1A":"East 314","DIRECTION_2A":"West 378"}},{"type":"Feature","id":281858,"geometry":{"type":"Point","coordinates":[153.244627795876,-27.784256332659,0]},"properties":{"OBJECTID":281858,"GlobalID":"8f74f42c-91f5-4e33-a54b-75f3546a3df5","SUBURB":"ORMEAU","STREET":"Peachey Road","LOCATION":"54 Peachey Road","SURVEY_DATE":"Mon, 17 Apr 2023 14:00:00 GMT","VPD":8995,"DIRECTION_1A":"East 4249","DIRECTION_2A":"West 4746"}},{"type":"Feature","id":281859,"geometry":{"type":"Point","coordinates":[153.229495227349,-27.7770895697049,0]},"properties":{"OBJECTID":281859,"GlobalID":"c9d90e4a-6b51-4878-8db2-75215d52e269","SUBURB":"ORMEAU","STREET":"Peachey Road","LOCATION":"West of Pascoe Road","SURVEY_DATE":"Thu, 02 Mar 2023 00:00:00 GMT","VPD":7734,"DIRECTION_1A":"East 3901","DIRECTION_2A":"West 3833"}},{"type":"Feature","id":281860,"geometry":{"type":"Point","coordinates":[153.22963961428,-27.7771609057455,0]},"properties":{"OBJECTID":281860,"GlobalID":"e71ee9d2-9b51-4351-b43e-30076641054b","SUBURB":"ORMEAU","STREET":"Peachey Road","LOCATION":"West of Pascoe Rd","SURVEY_DATE":"Mon, 17 Apr 2023 14:00:00 GMT","VPD":7450,"DIRECTION_1A":"West 3735","DIRECTION_2A":"East 3715"}},{"type":"Feature","id":281861,"geometry":{"type":"Point","coordinates":[153.417717902287,-28.0254863460516,0]},"properties":{"OBJECTID":281861,"GlobalID":"b263929e-c387-49f3-8975-59ac0255c087","SUBURB":"BROADBEACH WATERS","STREET":"Rio Vista Blv","LOCATION":"Adjacent to no. 84","SURVEY_DATE":"Mon, 17 Apr 2023 14:00:00 GMT","VPD":10403,"DIRECTION_1A":"North 5391","DIRECTION_2A":"South 5013"}},{"type":"Feature","id":281862,"geometry":{"type":"Point","coordinates":[153.417227393442,-28.0257540489156,0]},"properties":{"OBJECTID":281862,"GlobalID":"af2e260b-c30f-4bec-b143-532e1a81e27a","SUBURB":"BROADBEACH WATERS","STREET":"Kalimna Drive","LOCATION":"Adjacent to property no. 4","SURVEY_DATE":"Mon, 17 Apr 2023 14:00:00 GMT","VPD":1783,"DIRECTION_1A":"East 779","DIRECTION_2A":"West 1005"}},{"type":"Feature","id":281863,"geometry":{"type":"Point","coordinates":[153.356488364586,-27.9678834196626,0]},"properties":{"OBJECTID":281863,"GlobalID":"90d0c04d-2168-43e6-86c3-d65a2bcd8e30","SUBURB":"MOLENDINAR","STREET":"Ashmore Road","LOCATION":"Adjacent to property no. 765","SURVEY_DATE":"Mon, 17 Apr 2023 14:00:00 GMT","VPD":1099,"DIRECTION_1A":"North 548","DIRECTION_2A":"South 550"}},{"type":"Feature","id":281864,"geometry":{"type":"Point","coordinates":[153.292559995367,-27.7995525811606,0]},"properties":{"OBJECTID":281864,"GlobalID":"7c84569c-7d1d-4c1d-b79e-fdadd4d29a9a","SUBURB":"PIMPAMA","STREET":"Pimpama-Jacobs Well Road","LOCATION":"100m north of Wharf road","SURVEY_DATE":"Mon, 17 Apr 2023 14:00:00 GMT","VPD":6908,"DIRECTION_1A":"North 3181","DIRECTION_2A":"South 3727"}},{"type":"Feature","id":281865,"geometry":{"type":"Point","coordinates":[153.291913582198,-27.8004091012028,0]},"properties":{"OBJECTID":281865,"GlobalID":"06312a2f-17ae-478f-982e-423392a14a1f","SUBURB":"PIMPAMA","STREET":"Wharf Road","LOCATION":"200m West of Pimpama Jacobs well road","SURVEY_DATE":"Mon, 17 Apr 2023 14:00:00 GMT","VPD":3181,"DIRECTION_1A":"East 1654","DIRECTION_2A":"West 1528"}},{"type":"Feature","id":281866,"geometry":{"type":"Point","coordinates":[153.293886781052,-27.7995366835386,0]},"properties":{"OBJECTID":281866,"GlobalID":"f9a955ad-bf2b-46b9-a915-8261d72a5541","SUBURB":"PIMPAMA","STREET":"Old Wharf road","LOCATION":"200m East of Pimpama Jacobs well road","SURVEY_DATE":"Mon, 17 Apr 2023 14:00:00 GMT","VPD":171,"DIRECTION_1A":"East 85","DIRECTION_2A":"West 85"}},{"type":"Feature","id":281867,"geometry":{"type":"Point","coordinates":[153.280113228851,-27.7998753590274,0]},"properties":{"OBJECTID":281867,"GlobalID":"8ce87dd3-4c54-4411-a351-fd090b993d55","SUBURB":"PIMPAMA","STREET":"Mirambeena Drive","LOCATION":"200m East of Ormeau Railway Station","SURVEY_DATE":"Mon, 17 Apr 2023 14:00:00 GMT","VPD":3372,"DIRECTION_1A":"West 1621","DIRECTION_2A":"East 1750"}},{"type":"Feature","id":281868,"geometry":{"type":"Point","coordinates":[153.436110320614,-28.067141612143,0]},"properties":{"OBJECTID":281868,"GlobalID":"9ced2f6b-db86-40d2-b436-7df857a19b55","SUBURB":"MIAMI","STREET":"Bardon Ave","LOCATION":"Between Hillcrest Parade and Chainey Avenue","SURVEY_DATE":"Sun, 16 Apr 2023 14:00:00 GMT","VPD":888,"DIRECTION_1A":"North 466","DIRECTION_2A":"South 422"}},{"type":"Feature","id":281869,"geometry":{"type":"Point","coordinates":[153.354526863525,-28.0521588492085,0]},"properties":{"OBJECTID":281869,"GlobalID":"aacb9d89-c658-4cbb-b079-aee6a4140de4","SUBURB":"WORONGARY","STREET":"Mudgeeraba Road","LOCATION":"Between Crocker St and Quambone St","SURVEY_DATE":"Sun, 16 Apr 2023 14:00:00 GMT","VPD":14937,"DIRECTION_1A":"North 7755","DIRECTION_2A":"South 7182"}},{"type":"Feature","id":281870,"geometry":{"type":"Point","coordinates":[153.353567304208,-28.0445616132242,0]},"properties":{"OBJECTID":281870,"GlobalID":"4fd960dd-f27c-45f2-bb81-7015fc4e4dd0","SUBURB":"WORONGARY","STREET":"Hinkler Drive","LOCATION":"Between Alkira Way and Mudgeeraba Rd","SURVEY_DATE":"Sun, 16 Apr 2023 14:00:00 GMT","VPD":3179,"DIRECTION_1A":"North 1657","DIRECTION_2A":"South 1522"}},{"type":"Feature","id":281871,"geometry":{"type":"Point","coordinates":[153.441923647534,-28.1401474368699,0]},"properties":{"OBJECTID":281871,"GlobalID":"750a5232-36ca-40ff-ae50-f3ed39889e1d","SUBURB":"ELANORA","STREET":"Silver Glade Drive","LOCATION":"Adjacent to property no. 31","SURVEY_DATE":"Sun, 16 Apr 2023 14:00:00 GMT","VPD":845,"DIRECTION_1A":"East 415","DIRECTION_2A":"West 431"}},{"type":"Feature","id":281872,"geometry":{"type":"Point","coordinates":[153.417984782331,-28.0242683678333,0]},"properties":{"OBJECTID":281872,"GlobalID":"f70853d6-595d-47a7-9113-d006cde79410","SUBURB":"BROADBEACH","STREET":"Rio Vista Boulevard","LOCATION":"Adjacent property no.74","SURVEY_DATE":"Wed, 22 Mar 2023 14:00:00 GMT","VPD":9888,"DIRECTION_1A":"North 5121","DIRECTION_2A":"South 4767"}},{"type":"Feature","id":281873,"geometry":{"type":"Point","coordinates":[153.417249856423,-28.0278577654796,0]},"properties":{"OBJECTID":281873,"GlobalID":"1cc0f8c2-3be1-4938-b3a3-b0c58fa38101","SUBURB":"BROADBEACH","STREET":"Rio Vista Boulevard","LOCATION":"Adjacent property no.110","SURVEY_DATE":"Wed, 22 Mar 2023 14:00:00 GMT","VPD":19925,"DIRECTION_1A":"North 9862","DIRECTION_2A":"South 10063"}},{"type":"Feature","id":281874,"geometry":{"type":"Point","coordinates":[153.431428977815,-28.0091488986919,0]},"properties":{"OBJECTID":281874,"GlobalID":"34f04d2f-e395-413f-9c53-ffd308572935","SUBURB":"SURFERS PARADISE","STREET":"Garfield Terrace","LOCATION":"Between Enderley Avenue and Vista Street","SURVEY_DATE":"Wed, 22 Mar 2023 14:00:00 GMT","VPD":9258,"DIRECTION_1A":"North 4818","DIRECTION_2A":"South 4440"}},{"type":"Feature","id":281875,"geometry":{"type":"Point","coordinates":[153.326514695487,-27.8656418643317,0]},"properties":{"OBJECTID":281875,"GlobalID":"3a73f21b-65c6-46bc-a147-e89fff9125ff","SUBURB":"COOMERA","STREET":"Ford Road","LOCATION":"Adjacent property no.17","SURVEY_DATE":"Wed, 22 Mar 2023 14:00:00 GMT","VPD":750,"DIRECTION_1A":"North 375","DIRECTION_2A":"South 374"}},{"type":"Feature","id":281876,"geometry":{"type":"Point","coordinates":[153.419307109941,-28.0266715731556,0]},"properties":{"OBJECTID":281876,"GlobalID":"8ce7da71-b09a-4eea-8f9c-59640a299c6d","SUBURB":"BROADBEACH","STREET":"T E Peters Drive","LOCATION":"Adjacent property no.87","SURVEY_DATE":"Wed, 22 Mar 2023 14:00:00 GMT","VPD":14354,"DIRECTION_1A":"East 6841","DIRECTION_2A":"West 7513"}},{"type":"Feature","id":281877,"geometry":{"type":"Point","coordinates":[153.423593279938,-28.0273842374184,0]},"properties":{"OBJECTID":281877,"GlobalID":"8cb994b3-486b-4185-9d4b-159b4ccb24d9","SUBURB":"BROADBEACH","STREET":"T E Peters Drive","LOCATION":"Adjacent property no.47","SURVEY_DATE":"Wed, 22 Mar 2023 14:00:00 GMT","VPD":13916,"DIRECTION_1A":"East 6671","DIRECTION_2A":"West 7246"}},{"type":"Feature","id":281878,"geometry":{"type":"Point","coordinates":[153.431824686852,-28.0117933312483,0]},"properties":{"OBJECTID":281878,"GlobalID":"fae3fd26-cc14-493c-a8c9-397033b0375b","SUBURB":"SURFERS PARADISE","STREET":"Garfield Terrace","LOCATION":"Between Aubrey Street and Frederick Street","SURVEY_DATE":"Wed, 22 Mar 2023 14:00:00 GMT","VPD":8628,"DIRECTION_1A":"North 4796","DIRECTION_2A":"South 3832"}},{"type":"Feature","id":281879,"geometry":{"type":"Point","coordinates":[153.431225633442,-28.0074507186872,0]},"properties":{"OBJECTID":281879,"GlobalID":"ab440a8e-6910-4bad-a014-8c51a81d6ce8","SUBURB":"SURFERS PARADISE","STREET":"Northcliffe Terrace","LOCATION":"Between Hamilton Avenue and Markwell Avenue","SURVEY_DATE":"Wed, 22 Mar 2023 14:00:00 GMT","VPD":10157,"DIRECTION_1A":"North 5713","DIRECTION_2A":"South 4444"}},{"type":"Feature","id":281880,"geometry":{"type":"Point","coordinates":[153.430277265141,-27.9925110380213,0]},"properties":{"OBJECTID":281880,"GlobalID":"78d6a55b-78f6-4211-81a7-eafdbd7a0b32","SUBURB":"SURFERS PARADISE","STREET":"The Esplanade","LOCATION":"Between Ocean Avenue and Higman Street","SURVEY_DATE":"Wed, 22 Mar 2023 14:00:00 GMT","VPD":10095,"DIRECTION_1A":"North 5373","DIRECTION_2A":"South 4722"}},{"type":"Feature","id":281881,"geometry":{"type":"Point","coordinates":[153.413141256711,-28.0703039557449,0]},"properties":{"OBJECTID":281881,"GlobalID":"4ded6b03-3b9b-4236-b34b-268271eb3b25","SUBURB":"Varsity Lakes","STREET":"University Drive","LOCATION":"Between Cottesloe Drive and Claremont Drive","SURVEY_DATE":"Wed, 02 Nov 2022 00:00:00 GMT","VPD":16951,"DIRECTION_1A":"North 8398","DIRECTION_2A":"South 8553"}},{"type":"Feature","id":281882,"geometry":{"type":"Point","coordinates":[153.412774833801,-28.0745282919254,0]},"properties":{"OBJECTID":281882,"GlobalID":"b3373ca9-9042-4fd1-8217-3d554ae4b961","SUBURB":"Varisty Lakes","STREET":"University Drive","LOCATION":"Between Lake Street and Bond University Ring Road","SURVEY_DATE":"Wed, 02 Nov 2022 00:00:00 GMT","VPD":14525,"DIRECTION_1A":"North 7276","DIRECTION_2A":"South 7249"}},{"type":"Feature","id":281883,"geometry":{"type":"Point","coordinates":[153.411346825635,-28.0762158046422,0]},"properties":{"OBJECTID":281883,"GlobalID":"c70c2111-6f9b-4ca0-b288-f8c9047e6fea","SUBURB":"Varsity Lakes","STREET":"University Drive","LOCATION":"Between Lake Street and Assembly Drive","SURVEY_DATE":"Wed, 02 Nov 2022 00:00:00 GMT","VPD":7952,"DIRECTION_1A":"North 4111","DIRECTION_2A":"South 3841"}},{"type":"Feature","id":281884,"geometry":{"type":"Point","coordinates":[153.409638562021,-28.0774984754328,0]},"properties":{"OBJECTID":281884,"GlobalID":"4969a997-f30b-4be1-9377-1cd0c913b5a6","SUBURB":"Varsity Lakes","STREET":"University Drive","LOCATION":"Between Assembly Drive and Main Street","SURVEY_DATE":"Wed, 02 Nov 2022 00:00:00 GMT","VPD":7349,"DIRECTION_1A":"North 3580","DIRECTION_2A":"South 3769"}},{"type":"Feature","id":281885,"geometry":{"type":"Point","coordinates":[153.413986446049,-28.0783213128663,0]},"properties":{"OBJECTID":281885,"GlobalID":"2c82778b-340b-45cd-bdb6-5c23e25c178a","SUBURB":"Varsity Lakes","STREET":"Varsity Parade","LOCATION":"Between Lake Street and Assembly Drive","SURVEY_DATE":"Wed, 02 Nov 2022 00:00:00 GMT","VPD":4665,"DIRECTION_1A":"East 2358","DIRECTION_2A":"West 2306"}},{"type":"Feature","id":281886,"geometry":{"type":"Point","coordinates":[153.409139657028,-28.0816319882784,0]},"properties":{"OBJECTID":281886,"GlobalID":"8f719007-ae36-4aff-8e03-e05d94d30ed1","SUBURB":"Varisty Lakes","STREET":"Varsity Parade","LOCATION":"Between Main Street and North Shore Avenue","SURVEY_DATE":"Wed, 02 Nov 2022 00:00:00 GMT","VPD":7075,"DIRECTION_1A":"North 3653","DIRECTION_2A":"South 3422"}},{"type":"Feature","id":281887,"geometry":{"type":"Point","coordinates":[153.401212513577,-28.084791380782,0]},"properties":{"OBJECTID":281887,"GlobalID":"ffd86b10-3a92-462d-93e9-7281e18890cc","SUBURB":"Varsity Lakes","STREET":"Varsity Parade","LOCATION":"Between Christine Avenue and Hillridge Crescent","SURVEY_DATE":"Wed, 02 Nov 2022 00:00:00 GMT","VPD":15979,"DIRECTION_1A":"North 8032","DIRECTION_2A":"South 7947"}},{"type":"Feature","id":281888,"geometry":{"type":"Point","coordinates":[153.413706714387,-28.0764631886828,0]},"properties":{"OBJECTID":281888,"GlobalID":"4a42398d-b26b-4e47-b32c-2bcf4c478621","SUBURB":"Varsity Parade","STREET":"Lake Street","LOCATION":"Between University Drive and Varsity Parade","SURVEY_DATE":"Wed, 02 Nov 2022 00:00:00 GMT","VPD":4645,"DIRECTION_1A":"North 2363","DIRECTION_2A":"South 2282"}},{"type":"Feature","id":281889,"geometry":{"type":"Point","coordinates":[153.411676262734,-28.0791407504537,0]},"properties":{"OBJECTID":281889,"GlobalID":"142d9a6d-2ebf-4957-9262-acf73f22881b","SUBURB":"Varsity Lakes","STREET":"Varsity Parade","LOCATION":"Between Assembly Drive and Main Street","SURVEY_DATE":"Wed, 02 Nov 2022 00:00:00 GMT","VPD":5569,"DIRECTION_1A":"North 2952","DIRECTION_2A":"South 2617"}},{"type":"Feature","id":281890,"geometry":{"type":"Point","coordinates":[153.406522875039,-28.0828890501645,0]},"properties":{"OBJECTID":281890,"GlobalID":"e64ae60a-e0ed-4663-9c06-9cfb1bb58b62","SUBURB":"Varsity Lakes","STREET":"Varsity Parade","LOCATION":"Between North Shore Avenue and University Drive","SURVEY_DATE":"Wed, 02 Nov 2022 00:00:00 GMT","VPD":8300,"DIRECTION_1A":"East 4326","DIRECTION_2A":"West 3974"}},{"type":"Feature","id":281891,"geometry":{"type":"Point","coordinates":[153.411423583946,-28.0776436726657,0]},"properties":{"OBJECTID":281891,"GlobalID":"2e26b018-83bd-4f9b-9ba1-927fa8da0f25","SUBURB":"Varsity Lakes","STREET":"Assembly Drive","LOCATION":"Between University Drive and Varsity Parade","SURVEY_DATE":"Wed, 02 Nov 2022 00:00:00 GMT","VPD":1458,"DIRECTION_1A":"North 757","DIRECTION_2A":"South 701"}},{"type":"Feature","id":281892,"geometry":{"type":"Point","coordinates":[153.449395087882,-28.0975173392764,0]},"properties":{"OBJECTID":281892,"GlobalID":"fb7a7e14-4db7-427f-8db0-4284cb1347c6","SUBURB":"Burleigh Heads","STREET":"Tabilban Street","LOCATION":"Between Reserve Road and Pindari Avenue","SURVEY_DATE":"Sat, 05 Nov 2022 00:00:00 GMT","VPD":9440,"DIRECTION_1A":"East 4094","DIRECTION_2A":"West 5346"}},{"type":"Feature","id":281893,"geometry":{"type":"Point","coordinates":[153.39720660717,-28.0576209338687,0]},"properties":{"OBJECTID":281893,"GlobalID":"3db677bd-e034-4d52-9337-ddf31cfa0201","SUBURB":"Robina","STREET":"Caulfield Street","LOCATION":"Adjacent property no.9","SURVEY_DATE":"Wed, 02 Nov 2022 00:00:00 GMT","VPD":1633,"DIRECTION_1A":"North 842","DIRECTION_2A":"South 791"}},{"type":"Feature","id":281894,"geometry":{"type":"Point","coordinates":[153.396321444003,-28.0584169482405,0]},"properties":{"OBJECTID":281894,"GlobalID":"2d7459a4-511c-4d62-a2fd-cb3285ca5796","SUBURB":"Robina","STREET":"Wattlepark Lane","LOCATION":"Adjacent property no.6","SURVEY_DATE":"Wed, 02 Nov 2022 00:00:00 GMT","VPD":450,"DIRECTION_1A":"North 226","DIRECTION_2A":"South 224"}},{"type":"Feature","id":281895,"geometry":{"type":"Point","coordinates":[153.435091808316,-28.0378866280838,0]},"properties":{"OBJECTID":281895,"GlobalID":"e7c8a70c-5227-4f96-b587-99d6a0368c37","SUBURB":"Mermaid Beach","STREET":"Peerless Avenue","LOCATION":"Between Gold Coast Highway and Hedges Avenue","SURVEY_DATE":"Mon, 07 Nov 2022 00:00:00 GMT","VPD":1263,"DIRECTION_1A":"East 646","DIRECTION_2A":"West 617"}},{"type":"Feature","id":281896,"geometry":{"type":"Point","coordinates":[153.445816133684,-28.096976576322,0]},"properties":{"OBJECTID":281896,"GlobalID":"43c0a4f9-41e8-4d9d-bbac-cd3c47064286","SUBURB":"Burleigh Heads","STREET":"Tabilban Street","LOCATION":"Adjacent property no.68","SURVEY_DATE":"Sat, 05 Nov 2022 00:00:00 GMT","VPD":7732,"DIRECTION_1A":"East 4626","DIRECTION_2A":"West 3106"}},{"type":"Feature","id":281897,"geometry":{"type":"Point","coordinates":[153.452277073381,-28.098130419011,0]},"properties":{"OBJECTID":281897,"GlobalID":"97851e77-6beb-430f-a1fd-d0c97ddf8492","SUBURB":"Burleigh Heads","STREET":"Tabilban Street","LOCATION":"Adjacent property no.8","SURVEY_DATE":"Sat, 05 Nov 2022 00:00:00 GMT","VPD":8735,"DIRECTION_1A":"East 3645","DIRECTION_2A":"West 5090"}},{"type":"Feature","id":281898,"geometry":{"type":"Point","coordinates":[153.368430835774,-27.9460885016252,0]},"properties":{"OBJECTID":281898,"GlobalID":"bd34052d-db87-41ab-a436-8fcac4edc7c3","SUBURB":"Parkwood","STREET":"Napper Road","LOCATION":"Between Captain Cook Drive and Woodlands Way","SURVEY_DATE":"Tue, 22 Nov 2022 00:00:00 GMT","VPD":10294,"DIRECTION_1A":"East 10294 ","DIRECTION_2A":"Eastbound only"}},{"type":"Feature","id":281899,"geometry":{"type":"Point","coordinates":[153.36359416589,-27.9409016850728,0]},"properties":{"OBJECTID":281899,"GlobalID":"81908004-14e7-44ef-b73b-08616d9d70b4","SUBURB":"Arundel","STREET":"Neri Crescent","LOCATION":"Adjacent property no.7","SURVEY_DATE":"Tue, 22 Nov 2022 00:00:00 GMT","VPD":1466,"DIRECTION_1A":"North 719","DIRECTION_2A":"South 747"}},{"type":"Feature","id":281900,"geometry":{"type":"Point","coordinates":[153.365896032086,-27.9468525251939,0]},"properties":{"OBJECTID":281900,"GlobalID":"fb186d09-46e9-4b88-bde3-8a97f6039f90","SUBURB":"Arundel","STREET":"Woodlands Way","LOCATION":"Between Napper Road and Evergreen Court","SURVEY_DATE":"Tue, 22 Nov 2022 00:00:00 GMT","VPD":1313,"DIRECTION_1A":"North 661","DIRECTION_2A":"South 653"}},{"type":"Feature","id":281901,"geometry":{"type":"Point","coordinates":[153.380766101942,-28.1110098721015,0]},"properties":{"OBJECTID":281901,"GlobalID":"261dd3ff-dbbd-41cd-8604-6a49bc283212","SUBURB":"Reedy Creek","STREET":"Tolga Road","LOCATION":"Between Worchester Terrace and property no.56","SURVEY_DATE":"Wed, 08 Feb 2023 00:00:00 GMT","VPD":2588,"DIRECTION_1A":"East 1330","DIRECTION_2A":"West 1258"}},{"type":"Feature","id":281902,"geometry":{"type":"Point","coordinates":[153.371696467796,-27.8380035741696,0]},"properties":{"OBJECTID":281902,"GlobalID":"1741bf2c-fabe-4795-9dbb-c76cce1d6a70","SUBURB":"Coomera","STREET":"Ragamuffin Drive East","LOCATION":"East of Elusive Drive","SURVEY_DATE":"Wed, 08 Feb 2023 00:00:00 GMT","VPD":228,"DIRECTION_1A":"East 114","DIRECTION_2A":"West 114"}},{"type":"Feature","id":281903,"geometry":{"type":"Point","coordinates":[153.371036627267,-27.9878220519929,0]},"properties":{"OBJECTID":281903,"GlobalID":"7d5e147b-353a-4dc5-88c3-68df047dda41","SUBURB":"Ashmore","STREET":"Freda Street","LOCATION":"Adjacent property no.34","SURVEY_DATE":"Tue, 07 Feb 2023 00:00:00 GMT","VPD":2607,"DIRECTION_1A":"North 1245","DIRECTION_2A":"South 1362"}},{"type":"Feature","id":281904,"geometry":{"type":"Point","coordinates":[153.371353517801,-27.9864280720645,0]},"properties":{"OBJECTID":281904,"GlobalID":"fed02f7c-5888-491f-a050-0668f8020f7b","SUBURB":"Ashmore","STREET":"Freda Street","LOCATION":"Adjacent property no.50","SURVEY_DATE":"Tue, 07 Feb 2023 00:00:00 GMT","VPD":2570,"DIRECTION_1A":"North 1227","DIRECTION_2A":"South 1344"}},{"type":"Feature","id":281905,"geometry":{"type":"Point","coordinates":[153.379773546253,-28.0797855862968,0]},"properties":{"OBJECTID":281905,"GlobalID":"3b191049-dbc4-4a6d-99d1-9b3e6272163b","SUBURB":"Robina","STREET":"Easthill Drive","LOCATION":"West of Laver Drive","SURVEY_DATE":"Wed, 01 Feb 2023 00:00:00 GMT","VPD":1415,"DIRECTION_1A":"East 707","DIRECTION_2A":"West 708"}},{"type":"Feature","id":281906,"geometry":{"type":"Point","coordinates":[153.362860208589,-28.1164498422564,0]},"properties":{"OBJECTID":281906,"GlobalID":"a1a9cff0-e4e9-40ef-ad17-21356b94cc2f","SUBURB":"Bonogin","STREET":"Bonogin Road","LOCATION":"Adjacent property no.99","SURVEY_DATE":"Tue, 07 Feb 2023 00:00:00 GMT","VPD":4817,"DIRECTION_1A":"North 2429","DIRECTION_2A":"South 2388"}},{"type":"Feature","id":281907,"geometry":{"type":"Point","coordinates":[153.320304444537,-27.9458848739341,0]},"properties":{"OBJECTID":281907,"GlobalID":"3e592fe0-bf6a-46de-99e9-7d36c67f9de8","SUBURB":"Pacific Pines","STREET":"Archipelago Street","LOCATION":"Adjacent property no.31","SURVEY_DATE":"Wed, 15 Feb 2023 00:00:00 GMT","VPD":4055,"DIRECTION_1A":"North 1275","DIRECTION_2A":"South 2779"}},{"type":"Feature","id":281908,"geometry":{"type":"Point","coordinates":[153.358880356009,-27.9816689721859,0]},"properties":{"OBJECTID":281908,"GlobalID":"e93cc420-f83e-4c0b-86b4-34b6c88be02e","SUBURB":"Molendinar","STREET":"Jade Drive","LOCATION":"Adjacent property no.30","SURVEY_DATE":"Wed, 08 Feb 2023 00:00:00 GMT","VPD":712,"DIRECTION_1A":"East 366","DIRECTION_2A":"West 345"}},{"type":"Feature","id":281909,"geometry":{"type":"Point","coordinates":[153.3596520963,-27.984119624346,0]},"properties":{"OBJECTID":281909,"GlobalID":"59cde08c-7bfa-44c1-80b9-ee7e060792b6","SUBURB":"Molendinar","STREET":"Geary Crescent","LOCATION":"North of Harper Street","SURVEY_DATE":"Wed, 08 Feb 2023 00:00:00 GMT","VPD":1788,"DIRECTION_1A":"North 1196","DIRECTION_2A":"South 592"}},{"type":"Feature","id":281910,"geometry":{"type":"Point","coordinates":[153.324954011359,-27.944442011589,0]},"properties":{"OBJECTID":281910,"GlobalID":"3ba4ddc3-e126-4f4e-a8db-cef45a246eee","SUBURB":"Pacific Pines","STREET":"Hotham Drive","LOCATION":"West of Pacific Pines Boulevard","SURVEY_DATE":"Wed, 15 Feb 2023 00:00:00 GMT","VPD":4056,"DIRECTION_1A":"East 1530","DIRECTION_2A":"West 2526"}},{"type":"Feature","id":281911,"geometry":{"type":"Point","coordinates":[153.327981367203,-27.9418549886888,0]},"properties":{"OBJECTID":281911,"GlobalID":"1fda991c-9b0c-46b6-bfc4-9e3b25e23ac8","SUBURB":"Pacific Pines","STREET":"Galapagos Way","LOCATION":"East of Pacific Pines Boulevard","SURVEY_DATE":"Wed, 15 Feb 2023 00:00:00 GMT","VPD":1633,"DIRECTION_1A":"East 817","DIRECTION_2A":"West 816"}},{"type":"Feature","id":281912,"geometry":{"type":"Point","coordinates":[153.381804850259,-27.9778541688896,0]},"properties":{"OBJECTID":281912,"GlobalID":"252007ab-b78c-4612-9f98-f3c968b4e647","SUBURB":"Ashmore","STREET":"Green Glen Road","LOCATION":"East of Currumburra Road","SURVEY_DATE":"Fri, 10 Feb 2023 00:00:00 GMT","VPD":776,"DIRECTION_1A":"East 394","DIRECTION_2A":"West 394"}},{"type":"Feature","id":281913,"geometry":{"type":"Point","coordinates":[153.311519370003,-27.9026061991434,0]},"properties":{"OBJECTID":281913,"GlobalID":"f71f864d-04e0-4bec-88c1-4e2bd3f9610f","SUBURB":"Oxenford","STREET":"California Drive","LOCATION":"Adjacent property no.9","SURVEY_DATE":"Fri, 10 Feb 2023 00:00:00 GMT","VPD":2131,"DIRECTION_1A":"North 1072","DIRECTION_2A":"South 1059"}},{"type":"Feature","id":281914,"geometry":{"type":"Point","coordinates":[153.305798620854,-27.9045933233773,0]},"properties":{"OBJECTID":281914,"GlobalID":"a14522c1-4ad3-47f9-add7-7b7253ade2bd","SUBURB":"Oxenford","STREET":"California Drive","LOCATION":"Adjacent property no.51","SURVEY_DATE":"Fri, 10 Feb 2023 00:00:00 GMT","VPD":1305,"DIRECTION_1A":"North 610","DIRECTION_2A":"South 695"}},{"type":"Feature","id":281915,"geometry":{"type":"Point","coordinates":[153.325626300832,-27.9438063293705,0]},"properties":{"OBJECTID":281915,"GlobalID":"bb197cc8-f0df-499a-9890-1aed420ec746","SUBURB":"Pacific Pines","STREET":"Pacific Pines Boulevard","LOCATION":"North of Hotham Drive","SURVEY_DATE":"Wed, 15 Feb 2023 00:00:00 GMT","VPD":9071,"DIRECTION_1A":"North 4463","DIRECTION_2A":"South 4608"}},{"type":"Feature","id":281916,"geometry":{"type":"Point","coordinates":[153.326653010399,-27.9409694609459,0]},"properties":{"OBJECTID":281916,"GlobalID":"c5d92adc-67fa-4ad0-8d2b-6e76ba10a2de","SUBURB":"Pacific Pines","STREET":"Santa Isobel Boulevard","LOCATION":"Northwest of Pacific Pines Boulevard","SURVEY_DATE":"Wed, 15 Feb 2023 00:00:00 GMT","VPD":7220,"DIRECTION_1A":"East 3535","DIRECTION_2A":"West 3686"}},{"type":"Feature","id":281917,"geometry":{"type":"Point","coordinates":[153.425829592402,-27.9951479679374,0]},"properties":{"OBJECTID":281917,"GlobalID":"9abf8509-5c50-40c1-95bd-aeccd3fcee71","SUBURB":"Surfers Paradise","STREET":"Oak Avenue","LOCATION":"Between Palm Avneue and Pine Avenue","SURVEY_DATE":"Tue, 07 Feb 2023 00:00:00 GMT","VPD":845,"DIRECTION_1A":"North 322","DIRECTION_2A":"South 523"}},{"type":"Feature","id":281918,"geometry":{"type":"Point","coordinates":[153.426852910434,-27.9925250427484,0]},"properties":{"OBJECTID":281918,"GlobalID":"f9ee90e3-052d-48e5-bd6e-b6a2a0b67052","SUBURB":"Surfers Paradise","STREET":"Birt Avenue","LOCATION":"Between Oak Avenue and Ferny Avenue","SURVEY_DATE":"Tue, 07 Feb 2023 00:00:00 GMT","VPD":1310,"DIRECTION_1A":"East 663","DIRECTION_2A":"West 648"}},{"type":"Feature","id":281919,"geometry":{"type":"Point","coordinates":[153.426004132162,-27.9914078137684,0]},"properties":{"OBJECTID":281919,"GlobalID":"0be1784f-c815-4727-b34d-63ab7b84683c","SUBURB":"Surfers Paradise","STREET":"Paradise Place","LOCATION":"Between Oak Avenue and Birt Avenue","SURVEY_DATE":"Tue, 07 Feb 2023 00:00:00 GMT","VPD":255,"DIRECTION_1A":"North 138","DIRECTION_2A":"South 117"}},{"type":"Feature","id":281920,"geometry":{"type":"Point","coordinates":[153.426648482943,-27.9941131754387,0]},"properties":{"OBJECTID":281920,"GlobalID":"5b762db0-5243-428a-a804-d65af6c41f15","SUBURB":"Surfers Paradise","STREET":"Norfolk Avenue","LOCATION":"Between Oak Avenue and Ferny Avenue","SURVEY_DATE":"Tue, 07 Feb 2023 00:00:00 GMT","VPD":568,"DIRECTION_1A":"East 320","DIRECTION_2A":"West 248"}},{"type":"Feature","id":281921,"geometry":{"type":"Point","coordinates":[153.426185455059,-27.9972305972155,0]},"properties":{"OBJECTID":281921,"GlobalID":"eccbf057-ff78-46dc-97cb-b186bc958ffd","SUBURB":"Surfers Paradise","STREET":"Riverview Parade","LOCATION":"Between Thomas Drive and Cypress Avenue","SURVEY_DATE":"Tue, 07 Feb 2023 00:00:00 GMT","VPD":1461,"DIRECTION_1A":"North 1196","DIRECTION_2A":"South 265"}},{"type":"Feature","id":281922,"geometry":{"type":"Point","coordinates":[153.42644839924,-27.995689352907,0]},"properties":{"OBJECTID":281922,"GlobalID":"0e441890-7984-4f6d-9746-fac95f55acbf","SUBURB":"Surfers Paradise","STREET":"Palm Avenue","LOCATION":"Between Oak Avenue and Ferny Avenue","SURVEY_DATE":"Tue, 07 Feb 2023 00:00:00 GMT","VPD":1000,"DIRECTION_1A":"East 600","DIRECTION_2A":"West 400"}},{"type":"Feature","id":281923,"geometry":{"type":"Point","coordinates":[153.425362465375,-27.9931444495302,0]},"properties":{"OBJECTID":281923,"GlobalID":"72547f1b-715e-435f-904d-d65a39706046","SUBURB":"Surfers Paradise","STREET":"Blondell Avenue","LOCATION":"Between Oak Avenue and River Drive","SURVEY_DATE":"Tue, 07 Feb 2023 00:00:00 GMT","VPD":144,"DIRECTION_1A":"East 52","DIRECTION_2A":"West 92"}},{"type":"Feature","id":281924,"geometry":{"type":"Point","coordinates":[153.427209190778,-27.9923680707205,0]},"properties":{"OBJECTID":281924,"GlobalID":"06292ad1-d5bb-4c1c-9a33-6b59216ac705","SUBURB":"Surfers Paradise","STREET":"Birt Avenue","LOCATION":"Between Birt Avenue and end of road","SURVEY_DATE":"Tue, 07 Feb 2023 00:00:00 GMT","VPD":486,"DIRECTION_1A":"North 273","DIRECTION_2A":"South 214"}},{"type":"Feature","id":281925,"geometry":{"type":"Point","coordinates":[153.312097971601,-27.8900901854795,0]},"properties":{"OBJECTID":281925,"GlobalID":"5d8f8e7e-9ca7-4de6-9983-4afc462506d2","SUBURB":"Oxenford","STREET":"Global Plaza","LOCATION":"North of Leo Graham Way","SURVEY_DATE":"Tue, 14 Feb 2023 00:00:00 GMT","VPD":9772,"DIRECTION_1A":"North 4568","DIRECTION_2A":"South 5204"}},{"type":"Feature","id":281926,"geometry":{"type":"Point","coordinates":[153.4265329153,-27.996610805535,0]},"properties":{"OBJECTID":281926,"GlobalID":"17474c01-1b91-4e32-afe8-db907b485250","SUBURB":"Surfers Paradise","STREET":"Cypress Avenue","LOCATION":"Between Oak Avenue and Ferny Avenue","SURVEY_DATE":"Tue, 07 Feb 2023 00:00:00 GMT","VPD":3415,"DIRECTION_1A":"East 1951","DIRECTION_2A":"West 1464"}},{"type":"Feature","id":281927,"geometry":{"type":"Point","coordinates":[153.312902570367,-27.8883170532929,0]},"properties":{"OBJECTID":281927,"GlobalID":"f9d194b8-7064-4d8f-8858-19a912ce1551","SUBURB":"Oxenford","STREET":"Global Plaza","LOCATION":"West of Old Pacific Highway","SURVEY_DATE":"Tue, 14 Feb 2023 00:00:00 GMT","VPD":7108,"DIRECTION_1A":"East 2460","DIRECTION_2A":"West 4648"}},{"type":"Feature","id":281928,"geometry":{"type":"Point","coordinates":[153.426572088017,-27.9916797308988,0]},"properties":{"OBJECTID":281928,"GlobalID":"ef134b87-61f1-4d13-b749-b5fefb9caa47","SUBURB":"Surfers Paradise","STREET":"Oak Avenue","LOCATION":"Between Birt Avenue and Paradise Place","SURVEY_DATE":"Tue, 07 Feb 2023 00:00:00 GMT","VPD":263,"DIRECTION_1A":"North 122","DIRECTION_2A":"South 142"}},{"type":"Feature","id":281929,"geometry":{"type":"Point","coordinates":[153.312246678258,-27.8890112734374,0]},"properties":{"OBJECTID":281929,"GlobalID":"592c1212-f564-4ee5-a232-fe73d9dfe50e","SUBURB":"Oxenford","STREET":"Global Plaza","LOCATION":"Between Kmart access and Aldi access","SURVEY_DATE":"Tue, 14 Feb 2023 00:00:00 GMT","VPD":5568,"DIRECTION_1A":"North 2275","DIRECTION_2A":"South 3294"}},{"type":"Feature","id":281930,"geometry":{"type":"Point","coordinates":[153.426541677478,-27.9948953873298,0]},"properties":{"OBJECTID":281930,"GlobalID":"ba451bc4-7962-4b6a-af8b-c9bd09a0c74e","SUBURB":"Surfers Paradise","STREET":"Pine Avenue","LOCATION":"Between Oak Avenue and Ferny Avenue","SURVEY_DATE":"Tue, 07 Feb 2023 00:00:00 GMT","VPD":241,"DIRECTION_1A":"East 125","DIRECTION_2A":"West 116"}},{"type":"Feature","id":281931,"geometry":{"type":"Point","coordinates":[153.426135207594,-27.9935769644737,0]},"properties":{"OBJECTID":281931,"GlobalID":"9c2ce2e8-0f6a-4d32-b316-010fbb673efe","SUBURB":"Surfers Paradise","STREET":"Oak Avenue","LOCATION":"Between Norfolk Avenue and Blondell Avenue","SURVEY_DATE":"Tue, 07 Feb 2023 00:00:00 GMT","VPD":566,"DIRECTION_1A":"North 181","DIRECTION_2A":"South 384"}},{"type":"Feature","id":281932,"geometry":{"type":"Point","coordinates":[153.430930006349,-28.0274319643882,0]},"properties":{"OBJECTID":281932,"GlobalID":"d3b2e349-be36-4e51-87fc-1ef8b142cc18","SUBURB":"Broadbeach","STREET":"Queensland Avenue","LOCATION":"West of Surf Parade","SURVEY_DATE":"Thu, 02 Mar 2023 00:00:00 GMT","VPD":3393,"DIRECTION_1A":"East 2002","DIRECTION_2A":"West 1391"}},{"type":"Feature","id":281933,"geometry":{"type":"Point","coordinates":[153.431339221797,-28.0270439244557,0]},"properties":{"OBJECTID":281933,"GlobalID":"3d6409fe-4fdd-404e-81fb-b9dbc20071a0","SUBURB":"Broadbeach","STREET":"Surf Parade","LOCATION":"North of Queensland Avenue","SURVEY_DATE":"Thu, 02 Mar 2023 00:00:00 GMT","VPD":4871,"DIRECTION_1A":"North 2753","DIRECTION_2A":"South 2117"}},{"type":"Feature","id":281934,"geometry":{"type":"Point","coordinates":[153.431209749491,-28.0281694743422,0]},"properties":{"OBJECTID":281934,"GlobalID":"cd4fc266-7a15-4c6d-9e0e-20594f3d16fd","SUBURB":"Broadbeach","STREET":"Surf Parade","LOCATION":"Between Queensland Avenue and Albert Avenue","SURVEY_DATE":"Thu, 02 Mar 2023 00:00:00 GMT","VPD":8250,"DIRECTION_1A":"North 4112","DIRECTION_2A":"South 4138"}},{"type":"Feature","id":281935,"geometry":{"type":"Point","coordinates":[153.336151929092,-27.9930655240627,0]},"properties":{"OBJECTID":281935,"GlobalID":"24af44bd-c06c-4c5a-89b7-ce026f0a17ce","SUBURB":"Nerang","STREET":"Nerang Street","LOCATION":"Between bridge south of White Street & Nerang RSL","SURVEY_DATE":"Thu, 16 Feb 2023 00:00:00 GMT","VPD":451,"DIRECTION_1A":"North 226","DIRECTION_2A":"South 225"}},{"type":"Feature","id":281936,"geometry":{"type":"Point","coordinates":[153.412727302454,-28.0955221364485,0]},"properties":{"OBJECTID":281936,"GlobalID":"06053ea0-6320-41d3-af4d-bce47154901c","SUBURB":"Varsity Lakes","STREET":"Balmain Street","LOCATION":"Adjacent property no.55","SURVEY_DATE":"Tue, 14 Feb 2023 00:00:00 GMT","VPD":548,"DIRECTION_1A":"East 272","DIRECTION_2A":"West 275"}},{"type":"Feature","id":281937,"geometry":{"type":"Point","coordinates":[153.28191599544,-27.8898257301992,0]},"properties":{"OBJECTID":281937,"GlobalID":"71b1ee2e-73f6-47b1-9397-5ca20b8c8e63","SUBURB":"Upper Coomera","STREET":"Highland Way","LOCATION":"Adjacent property no.46","SURVEY_DATE":"Tue, 14 Feb 2023 00:00:00 GMT","VPD":2259,"DIRECTION_1A":"North 1099","DIRECTION_2A":"South 1160"}},{"type":"Feature","id":281938,"geometry":{"type":"Point","coordinates":[153.393767317558,-28.1061720325467,0]},"properties":{"OBJECTID":281938,"GlobalID":"3755ab42-718e-4932-bfd7-a359c87d917a","SUBURB":"Reedy Creek","STREET":"Bridgman Drive","LOCATION":"Adjacent property no.56","SURVEY_DATE":"Tue, 14 Feb 2023 00:00:00 GMT","VPD":517,"DIRECTION_1A":"North 222","DIRECTION_2A":"South 294"}},{"type":"Feature","id":281939,"geometry":{"type":"Point","coordinates":[153.3208177069,-27.9316967944044,0]},"properties":{"OBJECTID":281939,"GlobalID":"cafe8c35-44a9-42ce-bcf2-21bd5902a5b0","SUBURB":"Pacific Pines","STREET":"Hillary Circuit","LOCATION":"Adjacent property no.37","SURVEY_DATE":"Mon, 05 Dec 2022 00:00:00 GMT","VPD":1065,"DIRECTION_1A":"North 506","DIRECTION_2A":"South 559"}},{"type":"Feature","id":281940,"geometry":{"type":"Point","coordinates":[153.444630953647,-28.0959876617421,0]},"properties":{"OBJECTID":281940,"GlobalID":"a00c7e19-285d-4f13-ba90-b5d45d3b9ab5","SUBURB":"Burleigh Heads","STREET":"Page Parade","LOCATION":"Adjacent property no.11","SURVEY_DATE":"Thu, 16 Feb 2023 00:00:00 GMT","VPD":266,"DIRECTION_1A":"East 135","DIRECTION_2A":"West 131"}},{"type":"Feature","id":281941,"geometry":{"type":"Point","coordinates":[153.444567691768,-28.0967857044426,0]},"properties":{"OBJECTID":281941,"GlobalID":"aba277d0-fa3c-498e-b053-d765e6d79166","SUBURB":"Burleigh Heads","STREET":"Tabilban Street","LOCATION":"Adjacent property no.80","SURVEY_DATE":"Thu, 16 Feb 2023 00:00:00 GMT","VPD":7886,"DIRECTION_1A":"East 4725","DIRECTION_2A":"West 3161"}},{"type":"Feature","id":281942,"geometry":{"type":"Point","coordinates":[153.41444878443,-28.0954845805158,0]},"properties":{"OBJECTID":281942,"GlobalID":"788b7ebf-68b9-4948-b57f-c670c4733c86","SUBURB":"Varsity Lakes","STREET":"Balmain Street","LOCATION":"Adjacent property no.8","SURVEY_DATE":"Tue, 14 Feb 2023 00:00:00 GMT","VPD":774,"DIRECTION_1A":"East 387","DIRECTION_2A":"West 387"}},{"type":"Feature","id":281943,"geometry":{"type":"Point","coordinates":[153.48606233324,-28.1422557846015,0]},"properties":{"OBJECTID":281943,"GlobalID":"9e1828a5-9a99-4897-b997-92174a4a5d41","SUBURB":"Currumbin","STREET":"Blamey Drive","LOCATION":"North of Carlyle Drive","SURVEY_DATE":"Thu, 16 Feb 2023 00:00:00 GMT","VPD":246,"DIRECTION_1A":"North 71","DIRECTION_2A":"South 175"}},{"type":"Feature","id":281944,"geometry":{"type":"Point","coordinates":[153.429090851421,-27.9914184876064,0]},"properties":{"OBJECTID":281944,"GlobalID":"16c6b2b7-4a67-40c4-b51c-afd1b4e23238","SUBURB":"Surfers Paradise","STREET":"Surfers Paradise Bouelvard","LOCATION":"North of Main Beach Parade","SURVEY_DATE":"Sun, 22 Jan 2023 00:00:00 GMT","VPD":4857,"DIRECTION_1A":"North 19","DIRECTION_2A":"South 4837"}},{"type":"Feature","id":281945,"geometry":{"type":"Point","coordinates":[153.445676050094,-28.0962386620497,0]},"properties":{"OBJECTID":281945,"GlobalID":"54c23950-bc9a-4f82-9dc5-e7ca188c7454","SUBURB":"Burleigh Heads","STREET":"Wairoo Street","LOCATION":"Adjacent property no.8","SURVEY_DATE":"Thu, 16 Feb 2023 00:00:00 GMT","VPD":874,"DIRECTION_1A":"North 394","DIRECTION_2A":"South 480"}},{"type":"Feature","id":281946,"geometry":{"type":"Point","coordinates":[153.389358081909,-28.0007991801218,0]},"properties":{"OBJECTID":281946,"GlobalID":"804efae5-53cb-4591-8390-3f51aa0ad580","SUBURB":"Benowa","STREET":"Sylvan Drive","LOCATION":"Adjacent property no.12","SURVEY_DATE":"Thu, 16 Feb 2023 00:00:00 GMT","VPD":933,"DIRECTION_1A":"East 544","DIRECTION_2A":"West 389"}},{"type":"Feature","id":281947,"geometry":{"type":"Point","coordinates":[153.433154575789,-28.0270600842139,0]},"properties":{"OBJECTID":281947,"GlobalID":"4fbc5498-6a44-47fb-a5ed-e2aa947abc0b","SUBURB":"Broadbeach","STREET":"Queensland Avenue","LOCATION":"Between Federation Avenue and Old Burleigh Road","SURVEY_DATE":"Thu, 02 Mar 2023 00:00:00 GMT","VPD":2972,"DIRECTION_1A":"East 1509","DIRECTION_2A":"West 1463"}},{"type":"Feature","id":281948,"geometry":{"type":"Point","coordinates":[153.430486837646,-28.0264316212702,0]},"properties":{"OBJECTID":281948,"GlobalID":"812b24f2-4922-4da2-a33c-330ed0d6fd20","SUBURB":"Broadbeach","STREET":"Jubilee Avenue","LOCATION":"Adjacent property no.16","SURVEY_DATE":"Thu, 02 Mar 2023 00:00:00 GMT","VPD":1123,"DIRECTION_1A":"North 803","DIRECTION_2A":"South 320"}},{"type":"Feature","id":281949,"geometry":{"type":"Point","coordinates":[153.407402361758,-27.9993783027518,0]},"properties":{"OBJECTID":281949,"GlobalID":"3333e0ec-710b-4a95-8a6f-bfec11e31445","SUBURB":"Bundall","STREET":"Raymond Avenue","LOCATION":"Between Racecourse Drive and Richmond Avenue","SURVEY_DATE":"Wed, 22 Feb 2023 00:00:00 GMT","VPD":322,"DIRECTION_1A":"East 128","DIRECTION_2A":"West 194"}},{"type":"Feature","id":281950,"geometry":{"type":"Point","coordinates":[153.516157219731,-28.1625316137559,0]},"properties":{"OBJECTID":281950,"GlobalID":"d0129e76-97fb-40a1-96ea-dffbb5cd9720","SUBURB":"Bilinga","STREET":"Pacific Parade","LOCATION":"Adjacent property no.120","SURVEY_DATE":"Wed, 22 Feb 2023 00:00:00 GMT","VPD":2260,"DIRECTION_1A":"North 1360","DIRECTION_2A":"South 900"}},{"type":"Feature","id":281951,"geometry":{"type":"Point","coordinates":[153.449783913175,-28.0911713525612,0]},"properties":{"OBJECTID":281951,"GlobalID":"75eb695c-dd4f-436d-af77-74dc46c86614","SUBURB":"Burleigh Heads","STREET":"Ewart Street","LOCATION":"Adjacent properties no.21 and no.46","SURVEY_DATE":"Wed, 22 Feb 2023 00:00:00 GMT","VPD":2297,"DIRECTION_1A":"East 1490","DIRECTION_2A":"West 807"}},{"type":"Feature","id":281952,"geometry":{"type":"Point","coordinates":[153.264658553505,-27.7816795937566,0]},"properties":{"OBJECTID":281952,"GlobalID":"2104f911-08a5-4f3f-8013-02df638f6023","SUBURB":"Ormeau","STREET":"Jacobs Ridge Road","LOCATION":"Between MacLagen Street and Maidenwell Road","SURVEY_DATE":"Wed, 22 Feb 2023 00:00:00 GMT","VPD":5761,"DIRECTION_1A":"North 2926","DIRECTION_2A":"South 2835"}},{"type":"Feature","id":281953,"geometry":{"type":"Point","coordinates":[153.449911025519,-28.1266022003023,0]},"properties":{"OBJECTID":281953,"GlobalID":"54ad3bf3-22fa-4443-9765-991d33a12096","SUBURB":"Elanora","STREET":"Agave Avenue","LOCATION":"Between Avocado Street and Acron Street","SURVEY_DATE":"Mon, 27 Feb 2023 00:00:00 GMT","VPD":750,"DIRECTION_1A":"North 374","DIRECTION_2A":"South 377"}},{"type":"Feature","id":281954,"geometry":{"type":"Point","coordinates":[153.261616755685,-28.2256182313342,0]},"properties":{"OBJECTID":281954,"GlobalID":"d2bf3c3f-b512-40cc-97e4-3461bd7ffb82","SUBURB":"Springbrook","STREET":"Repeater Station Road","LOCATION":"North of property no.214","SURVEY_DATE":"Mon, 18 Feb 2019 00:00:00 GMT","VPD":271,"DIRECTION_1A":"North 137","DIRECTION_2A":"South 134"}},{"type":"Feature","id":281955,"geometry":{"type":"Point","coordinates":[153.365236915094,-28.0071570722299,0]},"properties":{"OBJECTID":281955,"GlobalID":"54348fd9-97e3-47cc-8e0e-1dc6a812c0bd","SUBURB":"Carrara","STREET":"Nerang Broadbeach Service Road","LOCATION":"Metricon Stadium access","SURVEY_DATE":"Fri, 15 Feb 2019 00:00:00 GMT","VPD":1579,"DIRECTION_1A":"East 989","DIRECTION_2A":"West 589"}},{"type":"Feature","id":281956,"geometry":{"type":"Point","coordinates":[153.361037556253,-28.0813315388975,0]},"properties":{"OBJECTID":281956,"GlobalID":"052577de-01e9-4d99-85b9-114afe6cf30c","SUBURB":"Mudgeeraba","STREET":"Hinterland Drive","LOCATION":"Adjacent property no.11","SURVEY_DATE":"Sat, 16 Feb 2019 00:00:00 GMT","VPD":1261,"DIRECTION_1A":"East 642","DIRECTION_2A":"West 619"}},{"type":"Feature","id":281957,"geometry":{"type":"Point","coordinates":[153.353467963941,-28.0822256784491,0]},"properties":{"OBJECTID":281957,"GlobalID":"214cc9ec-e177-4c89-8db6-ebfd95255217","SUBURB":"Mudgeeraba","STREET":"Old Coach Road","LOCATION":"Approx. 25m north of Franklin Drive","SURVEY_DATE":"Sat, 16 Feb 2019 00:00:00 GMT","VPD":7743,"DIRECTION_1A":"North 3887","DIRECTION_2A":"South 3856"}},{"type":"Feature","id":281958,"geometry":{"type":"Point","coordinates":[153.358297230877,-28.0798269205745,0]},"properties":{"OBJECTID":281958,"GlobalID":"77df4c91-0512-497d-97bf-e98b39309b04","SUBURB":"Mudgeeraba","STREET":"Cobai Drive","LOCATION":"Adjacent property no.63","SURVEY_DATE":"Sat, 16 Feb 2019 00:00:00 GMT","VPD":2307,"DIRECTION_1A":"East 1224","DIRECTION_2A":"West 1083"}},{"type":"Feature","id":281959,"geometry":{"type":"Point","coordinates":[153.337273302704,-28.019950371781,0]},"properties":{"OBJECTID":281959,"GlobalID":"6b303fed-772a-4602-96bb-234ac661ac87","SUBURB":"Worongary","STREET":"Explorers Way","LOCATION":"Adjacent property no.90","SURVEY_DATE":"Sat, 16 Feb 2019 00:00:00 GMT","VPD":2461,"DIRECTION_1A":"East 1304","DIRECTION_2A":"West 1158"}},{"type":"Feature","id":281960,"geometry":{"type":"Point","coordinates":[153.356484357162,-28.0771285864096,0]},"properties":{"OBJECTID":281960,"GlobalID":"de865be7-de85-49a2-82bd-2ca2e6e68074","SUBURB":"Mudgeeraba","STREET":"Rainbow Drive","LOCATION":"Adjacent property no.44","SURVEY_DATE":"Sat, 16 Feb 2019 00:00:00 GMT","VPD":1075,"DIRECTION_1A":"North 496","DIRECTION_2A":"South 579"}},{"type":"Feature","id":281961,"geometry":{"type":"Point","coordinates":[153.327651062204,-28.0575893608373,0]},"properties":{"OBJECTID":281961,"GlobalID":"e9a41fa5-508e-4f50-8724-17bdd543ad00","SUBURB":"Tallai","STREET":"The Panorama","LOCATION":"Between Tallai Country Club and Coorumbene Court","SURVEY_DATE":"Sat, 16 Feb 2019 00:00:00 GMT","VPD":1229,"DIRECTION_1A":"North 609","DIRECTION_2A":"South 620"}},{"type":"Feature","id":281962,"geometry":{"type":"Point","coordinates":[153.3080808461,-27.9926761452116,0]},"properties":{"OBJECTID":281962,"GlobalID":"524de0c5-fede-4d7b-b5ad-c69b96722364","SUBURB":"Nerang","STREET":"Crane Crescent","LOCATION":"Approx.320m north of Beaudesert-Nerang Road","SURVEY_DATE":"Sat, 16 Feb 2019 00:00:00 GMT","VPD":997,"DIRECTION_1A":"North 502","DIRECTION_2A":"South 495"}},{"type":"Feature","id":281963,"geometry":{"type":"Point","coordinates":[153.297480889723,-27.8572055878785,0]},"properties":{"OBJECTID":281963,"GlobalID":"c6bec596-79e7-435f-8330-9a8be3ddd8f1","SUBURB":"Upper Coomera","STREET":"Old Coach Road","LOCATION":"Between Denton Street and Billinghurst Crescent","SURVEY_DATE":"Wed, 20 Feb 2019 00:00:00 GMT","VPD":11259,"DIRECTION_1A":"North 5494","DIRECTION_2A":"South 5765"}},{"type":"Feature","id":281964,"geometry":{"type":"Point","coordinates":[153.289364053791,-27.8647939429657,0]},"properties":{"OBJECTID":281964,"GlobalID":"6478f14f-0334-494a-b4fe-9933e9d3465a","SUBURB":"Upper Coomera","STREET":"Old Coach Road","LOCATION":"Approx.30m north of Kondalilla Drive","SURVEY_DATE":"Wed, 20 Feb 2019 00:00:00 GMT","VPD":9642,"DIRECTION_1A":"North 4514","DIRECTION_2A":"South 5128"}},{"type":"Feature","id":281965,"geometry":{"type":"Point","coordinates":[153.390290602176,-28.0968063548566,0]},"properties":{"OBJECTID":281965,"GlobalID":"34ec6eae-5ba3-46e6-9844-4d70a41838d1","SUBURB":"Mudgeeraba","STREET":"Lancashire Drive","LOCATION":"Adjacent property no.26","SURVEY_DATE":"Sat, 16 Feb 2019 00:00:00 GMT","VPD":937,"DIRECTION_1A":"North 468","DIRECTION_2A":"South 468"}},{"type":"Feature","id":281966,"geometry":{"type":"Point","coordinates":[153.424303440221,-28.0872155613435,0]},"properties":{"OBJECTID":281966,"GlobalID":"de76bbe9-c5f7-4a2e-93dc-7743a19b18ff","SUBURB":"Burleigh Waters","STREET":"Mojave Drive","LOCATION":"Adjacent property no.10","SURVEY_DATE":"Tue, 19 Feb 2019 00:00:00 GMT","VPD":581,"DIRECTION_1A":"East 315","DIRECTION_2A":"West 266"}},{"type":"Feature","id":281967,"geometry":{"type":"Point","coordinates":[153.314794980557,-27.9009531446244,0]},"properties":{"OBJECTID":281967,"GlobalID":"58dfd2a4-863a-4c04-8384-9fe0f8d78389","SUBURB":"Oxenford","STREET":"Old Pacific Highway","LOCATION":"Approx. 160m north of Michigan Drive","SURVEY_DATE":"Sat, 16 Feb 2019 00:00:00 GMT","VPD":10662,"DIRECTION_1A":"North 5000","DIRECTION_2A":"South 5663"}},{"type":"Feature","id":281968,"geometry":{"type":"Point","coordinates":[153.313674815168,-27.8913478658932,0]},"properties":{"OBJECTID":281968,"GlobalID":"9a88bad0-d17f-44b1-8e6d-1e051b759da6","SUBURB":"Oxenford","STREET":"Old Pacific Highway","LOCATION":"Between Leo Graham Way and Oxenford Square","SURVEY_DATE":"Sat, 16 Feb 2019 00:00:00 GMT","VPD":10367,"DIRECTION_1A":"North 4912","DIRECTION_2A":"South 5455"}},{"type":"Feature","id":281969,"geometry":{"type":"Point","coordinates":[153.387441046007,-27.9128965864182,0]},"properties":{"OBJECTID":281969,"GlobalID":"931bf687-4879-47b1-aa77-0033e4aa63f6","SUBURB":"Runaway Bay","STREET":"Lae Drive","LOCATION":"Between Costa Del Sol and Pine Ridge Road","SURVEY_DATE":"Thu, 30 Jul 2020 00:00:00 GMT","VPD":2012,"DIRECTION_1A":"East 1006","DIRECTION_2A":"West 1005"}},{"type":"Feature","id":281970,"geometry":{"type":"Point","coordinates":[153.431356325504,-28.0047209078899,0]},"properties":{"OBJECTID":281970,"GlobalID":"0e82ea87-1818-47d9-973a-4d9683f1fe9a","SUBURB":"Surfers Paradise","STREET":"Northcliffe Terrace","LOCATION":"Between Trickett Street and Laycock Street","SURVEY_DATE":"Sat, 15 Dec 2018 00:00:00 GMT","VPD":11392,"DIRECTION_1A":"North 6490","DIRECTION_2A":"South 4902"}},{"type":"Feature","id":281971,"geometry":{"type":"Point","coordinates":[153.431135480349,-28.0064893072263,0]},"properties":{"OBJECTID":281971,"GlobalID":"0b8c0ecf-7e2d-474b-bc86-ac32229972f2","SUBURB":"Surfers Paradise","STREET":"Northcliffe Terrace","LOCATION":"Between Clifford Street and Hamilton Avenue","SURVEY_DATE":"Sat, 15 Dec 2018 00:00:00 GMT","VPD":10299,"DIRECTION_1A":"North 5353","DIRECTION_2A":"South 4946"}},{"type":"Feature","id":281972,"geometry":{"type":"Point","coordinates":[153.431707998029,-28.0109352177919,0]},"properties":{"OBJECTID":281972,"GlobalID":"6fbfc326-dbae-4455-83c1-052b1560c7fd","SUBURB":"Surfers Paradise","STREET":"Garfield Terrace","LOCATION":"Between Thornton Street and Aubrey Street","SURVEY_DATE":"Sat, 15 Dec 2018 00:00:00 GMT","VPD":8717,"DIRECTION_1A":"North 5277","DIRECTION_2A":"South 3440"}},{"type":"Feature","id":281973,"geometry":{"type":"Point","coordinates":[153.431304616558,-28.0131142611364,0]},"properties":{"OBJECTID":281973,"GlobalID":"c2f2a100-d7ca-4cad-9dbf-a51789e6fb81","SUBURB":"Surfers Paradise","STREET":"Fern Street","LOCATION":"Between Old Burleigh Road and Garfield Terrace","SURVEY_DATE":"Sat, 15 Dec 2018 00:00:00 GMT","VPD":8079,"DIRECTION_1A":"East 4592","DIRECTION_2A":"West 3487"}},{"type":"Feature","id":281974,"geometry":{"type":"Point","coordinates":[153.433269429576,-28.0193367340439,0]},"properties":{"OBJECTID":281974,"GlobalID":"6cee3269-86af-43a6-8f45-31952ca499af","SUBURB":"Broadbeach","STREET":"Broadbeach Boulevard","LOCATION":"Between First Avenue and Second Avenue","SURVEY_DATE":"Sat, 15 Dec 2018 00:00:00 GMT","VPD":451,"DIRECTION_1A":"North 138","DIRECTION_2A":"South 313"}},{"type":"Feature","id":281975,"geometry":{"type":"Point","coordinates":[153.388464506095,-27.9128285610984,0]},"properties":{"OBJECTID":281975,"GlobalID":"cca59b55-08aa-474a-9594-9b31d5d9588c","SUBURB":"Runaway Bay","STREET":"Lae Drive","LOCATION":"Between Pine Ridge Road and Oxley Drive","SURVEY_DATE":"Thu, 30 Jul 2020 00:00:00 GMT","VPD":10822,"DIRECTION_1A":"East 4508","DIRECTION_2A":"West 6314"}},{"type":"Feature","id":281976,"geometry":{"type":"Point","coordinates":[153.339123682468,-28.0020881238502,0]},"properties":{"OBJECTID":281976,"GlobalID":"38ca792a-d7f6-4319-a91a-c39c2696109f","SUBURB":"Nerang","STREET":"Cayuga Street","LOCATION":"Adjacent property no.39","SURVEY_DATE":"Mon, 13 Jul 2020 00:00:00 GMT","VPD":4108,"DIRECTION_1A":"North 1977","DIRECTION_2A":"South 2131"}},{"type":"Feature","id":281977,"geometry":{"type":"Point","coordinates":[153.40389143326,-27.9774923591402,0]},"properties":{"OBJECTID":281977,"GlobalID":"ec00a1a4-a0f3-4edc-b664-a6d4b3032de6","SUBURB":"Southport","STREET":"Alicia Street","LOCATION":"Adjacent property no.14","SURVEY_DATE":"Mon, 13 Jul 2020 00:00:00 GMT","VPD":1671,"DIRECTION_1A":"North 719","DIRECTION_2A":"South 953"}},{"type":"Feature","id":281978,"geometry":{"type":"Point","coordinates":[153.403118085138,-27.9789673626819,0]},"properties":{"OBJECTID":281978,"GlobalID":"df57eeab-3c01-48ec-b728-889d49a47b61","SUBURB":"Southport","STREET":"Alicia Street","LOCATION":"Adjacent property no.31","SURVEY_DATE":"Mon, 13 Jul 2020 00:00:00 GMT","VPD":906,"DIRECTION_1A":"North 410","DIRECTION_2A":"South 496"}},{"type":"Feature","id":281979,"geometry":{"type":"Point","coordinates":[153.405828763044,-27.9407472972963,0]},"properties":{"OBJECTID":281979,"GlobalID":"c946b369-5eff-4126-af36-ab39c9a31d54","SUBURB":"Labrador","STREET":"Bath Street","LOCATION":"Adjacent property no.8","SURVEY_DATE":"Mon, 13 Jul 2020 00:00:00 GMT","VPD":1368,"DIRECTION_1A":"North 720","DIRECTION_2A":"South 649"}},{"type":"Feature","id":281980,"geometry":{"type":"Point","coordinates":[153.446753549035,-28.0760742201987,0]},"properties":{"OBJECTID":281980,"GlobalID":"08b4aabe-e7a0-494d-82a4-98584e9cda03","SUBURB":"Burleigh Heads","STREET":"The Esplanade ","LOCATION":"Approx.20m north of Sixth Avenue","SURVEY_DATE":"Thu, 16 May 2019 00:00:00 GMT","VPD":5834,"DIRECTION_1A":"North 4065","DIRECTION_2A":"South 1769"}},{"type":"Feature","id":281981,"geometry":{"type":"Point","coordinates":[153.405912559572,-27.9386763095617,0]},"properties":{"OBJECTID":281981,"GlobalID":"956bcf8d-0a19-406f-831e-75396d6dc99f","SUBURB":"Labrador","STREET":"Bath Street","LOCATION":"Adjacent property no.25","SURVEY_DATE":"Mon, 13 Jul 2020 00:00:00 GMT","VPD":825,"DIRECTION_1A":"North 740","DIRECTION_2A":"South 85"}},{"type":"Feature","id":281982,"geometry":{"type":"Point","coordinates":[153.405872322141,-27.9397565665466,0]},"properties":{"OBJECTID":281982,"GlobalID":"151c0b68-7e55-4dc4-950b-30d3428fff66","SUBURB":"Labrador","STREET":"Bath Street","LOCATION":"Adjacent property no.18","SURVEY_DATE":"Mon, 13 Jul 2020 00:00:00 GMT","VPD":1216,"DIRECTION_1A":"North 672","DIRECTION_2A":"South 544"}},{"type":"Feature","id":281983,"geometry":{"type":"Point","coordinates":[153.315482630538,-27.8787351891605,0]},"properties":{"OBJECTID":281983,"GlobalID":"1b2d71eb-7046-4dbf-b093-2a9b72e76427","SUBURB":"Coomera","STREET":"Dreamworld Parkway","LOCATION":"Approx.100m south of Coomera River","SURVEY_DATE":"Sun, 19 Jul 2020 00:00:00 GMT","VPD":11362,"DIRECTION_1A":"North 5977","DIRECTION_2A":"South 5385"}},{"type":"Feature","id":281984,"geometry":{"type":"Point","coordinates":[153.316078237244,-27.8830633105781,0]},"properties":{"OBJECTID":281984,"GlobalID":"b7686f29-f747-4793-bb43-d8498ec30d90","SUBURB":"Coomera","STREET":"Eastern Service Road","LOCATION":"Approx. 300m north of Hope Island Road","SURVEY_DATE":"Mon, 20 Jul 2020 00:00:00 GMT","VPD":4943,"DIRECTION_1A":"North 5807","DIRECTION_2A":"South 5355"}},{"type":"Feature","id":281985,"geometry":{"type":"Point","coordinates":[153.403561316255,-28.0700163331546,0]},"properties":{"OBJECTID":281985,"GlobalID":"81696ed2-4a2b-4c49-aa16-86d5691b547b","SUBURB":"Robina","STREET":"Ron Penhaligon Way","LOCATION":"Adjacent property no.262","SURVEY_DATE":"Thu, 16 May 2019 00:00:00 GMT","VPD":3387,"DIRECTION_1A":"North 1678","DIRECTION_2A":"South 1709"}},{"type":"Feature","id":281986,"geometry":{"type":"Point","coordinates":[153.470649600352,-28.1166036892088,0]},"properties":{"OBJECTID":281986,"GlobalID":"fdfaa482-2617-4770-92bb-fb1577c63f27","SUBURB":"Palm Beach","STREET":"Jefferson Lane","LOCATION":"Adjacent property no.160","SURVEY_DATE":"Thu, 14 Mar 2019 00:00:00 GMT","VPD":372,"DIRECTION_1A":"North 329","DIRECTION_2A":"South 43"}},{"type":"Feature","id":281987,"geometry":{"type":"Point","coordinates":[153.20824293709,-27.7560536427145,0]},"properties":{"OBJECTID":281987,"GlobalID":"bb569df5-06d6-4db0-8d31-c2f064ebeae1","SUBURB":"Yatala","STREET":"Paterson Road","LOCATION":"Approx. 70m east of Norwood Court","SURVEY_DATE":"Thu, 14 Mar 2019 00:00:00 GMT","VPD":2692,"DIRECTION_1A":"East 1331","DIRECTION_2A":"West 1361"}},{"type":"Feature","id":281988,"geometry":{"type":"Point","coordinates":[153.310228912942,-27.903140820831,0]},"properties":{"OBJECTID":281988,"GlobalID":"a7a150e4-1198-4f1f-b225-83c58d602577","SUBURB":"Oxenford","STREET":"California Drive","LOCATION":"Adjacent property no.15","SURVEY_DATE":"Sun, 16 Jun 2019 00:00:00 GMT","VPD":1820,"DIRECTION_1A":"East 923","DIRECTION_2A":"West 897"}},{"type":"Feature","id":281989,"geometry":{"type":"Point","coordinates":[153.30914577997,-27.8881824635059,0]},"properties":{"OBJECTID":281989,"GlobalID":"3c85d2d4-a915-4816-8c66-8bae3ee41b57","SUBURB":"Oxenford","STREET":"Regatta Avenue","LOCATION":"Adjacent property no.61","SURVEY_DATE":"Thu, 16 May 2019 00:00:00 GMT","VPD":2812,"DIRECTION_1A":"North 1388","DIRECTION_2A":"South 1425"}},{"type":"Feature","id":281990,"geometry":{"type":"Point","coordinates":[153.335820895545,-27.9122706016583,0]},"properties":{"OBJECTID":281990,"GlobalID":"c5d10581-55cd-492d-9969-e02a30b8bdc3","SUBURB":"Helensvale","STREET":"Ridgevale Drive","LOCATION":"Adjacent property no.32","SURVEY_DATE":"Thu, 16 May 2019 00:00:00 GMT","VPD":3127,"DIRECTION_1A":"North 1401","DIRECTION_2A":"South 1726"}},{"type":"Feature","id":281991,"geometry":{"type":"Point","coordinates":[153.337124573669,-27.9063973483876,0]},"properties":{"OBJECTID":281991,"GlobalID":"3fd7d2e0-5276-4941-a86f-c5f5ea1c1983","SUBURB":"Helensvale","STREET":"Mildura Drive","LOCATION":"Adjacent property no.132","SURVEY_DATE":"Thu, 16 May 2019 00:00:00 GMT","VPD":1962,"DIRECTION_1A":"East 980","DIRECTION_2A":"West 983"}},{"type":"Feature","id":281992,"geometry":{"type":"Point","coordinates":[153.456472744792,-28.1337188802203,0]},"properties":{"OBJECTID":281992,"GlobalID":"16dc453f-1ebc-42b7-b92a-932b68e9921e","SUBURB":"Elanora","STREET":"Swanbourne Way","LOCATION":"Adjacent property no.38","SURVEY_DATE":"Wed, 15 May 2019 00:00:00 GMT","VPD":625,"DIRECTION_1A":"East 330","DIRECTION_2A":"West 295"}},{"type":"Feature","id":281993,"geometry":{"type":"Point","coordinates":[153.392084540269,-27.9551819920359,0]},"properties":{"OBJECTID":281993,"GlobalID":"264a1816-0052-46dd-91b4-292ef672a8c5","SUBURB":"Labrador","STREET":"Musgrave Avenue","LOCATION":"Approx. 300m west of Kumbari Avenue","SURVEY_DATE":"Thu, 16 May 2019 00:00:00 GMT","VPD":12069,"DIRECTION_1A":"East 5958","DIRECTION_2A":"West 6112"}},{"type":"Feature","id":281994,"geometry":{"type":"Point","coordinates":[153.320185470189,-27.828942571372,0]},"properties":{"OBJECTID":281994,"GlobalID":"6644fe54-7a73-473c-9d2e-fa1096779702","SUBURB":"Pimpama","STREET":"William Boulevard","LOCATION":"Adjacent property no.49","SURVEY_DATE":"Wed, 29 May 2019 00:00:00 GMT","VPD":3043,"DIRECTION_1A":"East 1622","DIRECTION_2A":"West 1422"}},{"type":"Feature","id":281995,"geometry":{"type":"Point","coordinates":[153.424831827046,-28.0860015465908,0]},"properties":{"OBJECTID":281995,"GlobalID":"9bc73bda-29e4-4fc8-ab9c-4171b7036b93","SUBURB":"Burleigh Waters","STREET":"Christine Avenue","LOCATION":"West of Bermuda Street","SURVEY_DATE":"Thu, 27 Aug 2020 00:00:00 GMT","VPD":21841,"DIRECTION_1A":"East 10414","DIRECTION_2A":"West 11427"}},{"type":"Feature","id":281996,"geometry":{"type":"Point","coordinates":[153.31918009823,-27.8536352105139,0]},"properties":{"OBJECTID":281996,"GlobalID":"cc3c2451-ec3e-43c6-9c0f-8a583b55f7c6","SUBURB":"Coomera","STREET":"Foxwell Road","LOCATION":"Between Creek Road and George Alexander Way","SURVEY_DATE":"Tue, 11 Aug 2020 00:00:00 GMT","VPD":29912,"DIRECTION_1A":"East 14951","DIRECTION_2A":"West 14960"}},{"type":"Feature","id":281997,"geometry":{"type":"Point","coordinates":[153.253658195816,-27.7762642190336,0]},"properties":{"OBJECTID":281997,"GlobalID":"a2ef2c09-e9fb-4921-b84e-671bcaca72d2","SUBURB":"Ormeau","STREET":"Goldmine Road","LOCATION":"East of Lahrs Road","SURVEY_DATE":"Tue, 25 Aug 2020 00:00:00 GMT","VPD":5578,"DIRECTION_1A":"East 2783","DIRECTION_2A":"West 2796"}},{"type":"Feature","id":281998,"geometry":{"type":"Point","coordinates":[153.437864818176,-28.0444972442774,0]},"properties":{"OBJECTID":281998,"GlobalID":"450a0853-d6b4-44a6-ab93-56726c503e08","SUBURB":"Mermaid Beach","STREET":"Hedges Avenue","LOCATION":"Between Venice Street and Ocean Street","SURVEY_DATE":"Thu, 23 May 2019 00:00:00 GMT","VPD":3659,"DIRECTION_1A":"North 3374","DIRECTION_2A":"South 285"}},{"type":"Feature","id":281999,"geometry":{"type":"Point","coordinates":[153.389312374318,-28.0094344916421,0]},"properties":{"OBJECTID":281999,"GlobalID":"d6b58c77-390c-49aa-8db7-ef9a5428ea62","SUBURB":"Benowa","STREET":"Ashmore Road","LOCATION":"Adjacent property no.222","SURVEY_DATE":"Thu, 30 May 2019 00:00:00 GMT","VPD":24345,"DIRECTION_1A":"East 12748","DIRECTION_2A":"West 11597"}},{"type":"Feature","id":282000,"geometry":{"type":"Point","coordinates":[153.216602314044,-27.7504438723807,0]},"properties":{"OBJECTID":282000,"GlobalID":"b7108b08-9a65-478c-bafd-df2e37b61923","SUBURB":"Yatala","STREET":"Pagan Road","LOCATION":"Adjacent property no.2","SURVEY_DATE":"Thu, 30 May 2019 00:00:00 GMT","VPD":793,"DIRECTION_1A":"North 397","DIRECTION_2A":"South 397"}},{"type":"Feature","id":282001,"geometry":{"type":"Point","coordinates":[153.394568246144,-27.9661084890779,0]},"properties":{"OBJECTID":282001,"GlobalID":"d6dd67f7-c073-4b78-83cc-dfd8c4ad964a","SUBURB":"Southport","STREET":"Wardoo Street","LOCATION":"Adjacent property no.252","SURVEY_DATE":"Thu, 30 May 2019 00:00:00 GMT","VPD":21037,"DIRECTION_1A":"North 9908","DIRECTION_2A":"South 11128"}},{"type":"Feature","id":282002,"geometry":{"type":"Point","coordinates":[153.370575070248,-27.9809846490389,0]},"properties":{"OBJECTID":282002,"GlobalID":"a3854d0a-9bd3-4eda-a5be-541ac151d4c0","SUBURB":"Molendinar","STREET":"Macquarie Avenue","LOCATION":"Adjacent properties no.7 and no.9","SURVEY_DATE":"Tue, 04 Jun 2019 00:00:00 GMT","VPD":2374,"DIRECTION_1A":"East 1038","DIRECTION_2A":"West 1336"}},{"type":"Feature","id":282003,"geometry":{"type":"Point","coordinates":[153.426181855436,-28.0061499716905,0]},"properties":{"OBJECTID":282003,"GlobalID":"23075083-140f-4712-8079-154a15a1eb40","SUBURB":"Surfers Paradise","STREET":"Paradise Island","LOCATION":"Adjacent property no.84","SURVEY_DATE":"Tue, 04 Jun 2019 00:00:00 GMT","VPD":419,"DIRECTION_1A":"North 221","DIRECTION_2A":"South 198"}},{"type":"Feature","id":282004,"geometry":{"type":"Point","coordinates":[153.425265565524,-28.0060398360412,0]},"properties":{"OBJECTID":282004,"GlobalID":"5cf51bfc-b108-44e9-bcc6-ed7dd314210e","SUBURB":"Surfers Paradise","STREET":"Paradise Island","LOCATION":"Adjacent property no.65","SURVEY_DATE":"Tue, 04 Jun 2019 00:00:00 GMT","VPD":304,"DIRECTION_1A":"North 140","DIRECTION_2A":"South 164"}},{"type":"Feature","id":282005,"geometry":{"type":"Point","coordinates":[153.426691976945,-28.0054471938966,0]},"properties":{"OBJECTID":282005,"GlobalID":"94c7ec69-05d9-4e0f-831e-679b2704cbfb","SUBURB":"Surfers Paradise","STREET":"Paradise Island","LOCATION":"Western side of the bridge","SURVEY_DATE":"Tue, 04 Jun 2019 00:00:00 GMT","VPD":1596,"DIRECTION_1A":"East 797","DIRECTION_2A":"West 799"}},{"type":"Feature","id":282006,"geometry":{"type":"Point","coordinates":[153.402298022512,-28.1045608060122,0]},"properties":{"OBJECTID":282006,"GlobalID":"5fdeb402-d6cf-457b-bb09-89b152b5e103","SUBURB":"Reedy Creek","STREET":"Woodland Drive","LOCATION":"Ajdacent property no.43","SURVEY_DATE":"Tue, 04 Jun 2019 00:00:00 GMT","VPD":970,"DIRECTION_1A":"North 502","DIRECTION_2A":"South 468"}},{"type":"Feature","id":282007,"geometry":{"type":"Point","coordinates":[153.415223824897,-27.9909978441386,0]},"properties":{"OBJECTID":282007,"GlobalID":"4b6550a5-84a6-419f-a807-1640a757eb33","SUBURB":"Southport","STREET":"Regatta Parade","LOCATION":"Approx.20m north of Skiff Street","SURVEY_DATE":"Wed, 22 May 2019 00:00:00 GMT","VPD":387,"DIRECTION_1A":"North 107","DIRECTION_2A":"South 280"}},{"type":"Feature","id":282008,"geometry":{"type":"Point","coordinates":[153.407812097792,-28.0565000809477,0]},"properties":{"OBJECTID":282008,"GlobalID":"99bba303-d276-4fd4-9cdc-652265113f98","SUBURB":"Robina","STREET":"Ron Penhaligon Way","LOCATION":"Approximately 50m south of Resort Drive","SURVEY_DATE":"Wed, 05 Jun 2019 00:00:00 GMT","VPD":6634,"DIRECTION_1A":"North 3459","DIRECTION_2A":"South 3175"}},{"type":"Feature","id":282009,"geometry":{"type":"Point","coordinates":[153.391592843622,-28.0715123883977,0]},"properties":{"OBJECTID":282009,"GlobalID":"cc3f9e54-2c65-45bb-b498-946e46389d8a","SUBURB":"Robina","STREET":"Thorngate Drive","LOCATION":"Adjacent property no.58","SURVEY_DATE":"Tue, 04 Jun 2019 00:00:00 GMT","VPD":1971,"DIRECTION_1A":"North 983","DIRECTION_2A":"South 988"}},{"type":"Feature","id":282010,"geometry":{"type":"Point","coordinates":[153.282370728235,-28.006624946475,0]},"properties":{"OBJECTID":282010,"GlobalID":"b3abc592-7cc5-40ca-89a7-f24e653e3370","SUBURB":"Clagiraba","STREET":"Clagiraba Road","LOCATION":"300m east of Arunta Drive","SURVEY_DATE":"Tue, 04 Jun 2019 00:00:00 GMT","VPD":3639,"DIRECTION_1A":"East 1782","DIRECTION_2A":"West 1857"}},{"type":"Feature","id":282011,"geometry":{"type":"Point","coordinates":[153.276448797499,-27.9142517885605,0]},"properties":{"OBJECTID":282011,"GlobalID":"8dc223b9-60ba-411d-8913-f3ce82b8f8a5","SUBURB":"Maudsland","STREET":"Riverstone Crossing","LOCATION":"East of Rivermill Terrace","SURVEY_DATE":"Sat, 08 Jun 2019 00:00:00 GMT","VPD":5136,"DIRECTION_1A":"East 2569","DIRECTION_2A":"West 2568"}},{"type":"Feature","id":282012,"geometry":{"type":"Point","coordinates":[153.307365715844,-27.9096011589837,0]},"properties":{"OBJECTID":282012,"GlobalID":"bf40b4ab-886f-46b1-8b82-8a952e130f43","SUBURB":"Oxenford","STREET":"Kopps Road","LOCATION":"Approx. 400m east of California Drive","SURVEY_DATE":"Sat, 08 Jun 2019 00:00:00 GMT","VPD":4876,"DIRECTION_1A":"East 2315","DIRECTION_2A":"West 2562"}},{"type":"Feature","id":282013,"geometry":{"type":"Point","coordinates":[153.462547572253,-28.1190388156112,0]},"properties":{"OBJECTID":282013,"GlobalID":"b06f9071-b7da-4ef5-9616-1e40672746de","SUBURB":"Palm Beach","STREET":"Mallawa Drive","LOCATION":"Adjacent property no.207","SURVEY_DATE":"Wed, 29 May 2019 00:00:00 GMT","VPD":4331,"DIRECTION_1A":"North 2462","DIRECTION_2A":"South 1869"}},{"type":"Feature","id":282014,"geometry":{"type":"Point","coordinates":[153.456065673949,-28.1088934441304,0]},"properties":{"OBJECTID":282014,"GlobalID":"2666beb3-4bcb-431b-85fc-a52b26c0a29e","SUBURB":"Palm Beach","STREET":"Mallawa Drive","LOCATION":"Adjacent property no.77","SURVEY_DATE":"Wed, 29 May 2019 00:00:00 GMT","VPD":4014,"DIRECTION_1A":"North 2461","DIRECTION_2A":"South 1553"}},{"type":"Feature","id":282015,"geometry":{"type":"Point","coordinates":[153.347743415385,-28.0213497498232,0]},"properties":{"OBJECTID":282015,"GlobalID":"0a28f570-4385-485f-944d-b6a0dce270d9","SUBURB":"Worongary","STREET":"Andamooka Avenue","LOCATION":"Adjacent property no.19","SURVEY_DATE":"Wed, 29 May 2019 00:00:00 GMT","VPD":308,"DIRECTION_1A":"East 152","DIRECTION_2A":"West 155"}},{"type":"Feature","id":282016,"geometry":{"type":"Point","coordinates":[153.401015991143,-27.9974279068833,0]},"properties":{"OBJECTID":282016,"GlobalID":"03ae10f5-5761-4daf-9cba-dd47a07afb6c","SUBURB":"Bundall","STREET":"Camellia Avenue","LOCATION":"Adjacent property no.6","SURVEY_DATE":"Wed, 29 May 2019 00:00:00 GMT","VPD":767,"DIRECTION_1A":"North 667","DIRECTION_2A":"South 101"}},{"type":"Feature","id":282017,"geometry":{"type":"Point","coordinates":[153.392482869397,-27.9121025125196,0]},"properties":{"OBJECTID":282017,"GlobalID":"8f68d05c-14cf-4cd0-96df-653f88abd57c","SUBURB":"Runaway Bay","STREET":"Lae Drive","LOCATION":"Between Oxley Drive and Morala Avenue","SURVEY_DATE":"Thu, 30 Jul 2020 00:00:00 GMT","VPD":19541,"DIRECTION_1A":"East 10261","DIRECTION_2A":"West 9279"}},{"type":"Feature","id":282018,"geometry":{"type":"Point","coordinates":[153.400017405257,-27.9122706093705,0]},"properties":{"OBJECTID":282018,"GlobalID":"f8a8ef85-2bfb-4f1c-a752-53795f8e2963","SUBURB":"Runaway Bay","STREET":"Lae Drive","LOCATION":"Between Morala Avenue and Bayview Street","SURVEY_DATE":"Thu, 30 Jul 2020 00:00:00 GMT","VPD":13171,"DIRECTION_1A":"East 5753","DIRECTION_2A":"West 7417"}},{"type":"Feature","id":282019,"geometry":{"type":"Point","coordinates":[153.403496082812,-27.9121123810143,0]},"properties":{"OBJECTID":282019,"GlobalID":"31aa005d-372c-4daf-b9dd-94293b29f804","SUBURB":"Runaway Bay","STREET":"Lae Place","LOCATION":"Between Bayview Street and Markham Avenue","SURVEY_DATE":"Thu, 30 Jul 2020 00:00:00 GMT","VPD":2325,"DIRECTION_1A":"East 1168","DIRECTION_2A":"West 1157"}},{"type":"Feature","id":282020,"geometry":{"type":"Point","coordinates":[153.296351487787,-27.896795215656,0]},"properties":{"OBJECTID":282020,"GlobalID":"2aba1167-e5a7-417d-95cd-a714dd750977","SUBURB":"Oxenford","STREET":"Tamborine Oxenford Road","LOCATION":"Approx. 50m south of Michigan Drive","SURVEY_DATE":"Mon, 17 Aug 2020 00:00:00 GMT","VPD":20665,"DIRECTION_1A":"North 10281","DIRECTION_2A":"South 10385"}},{"type":"Feature","id":282021,"geometry":{"type":"Point","coordinates":[153.31481594888,-27.9010650042808,0]},"properties":{"OBJECTID":282021,"GlobalID":"1f6b287d-b5a2-4c69-878d-172bcacc2c02","SUBURB":"Oxenford","STREET":"Old Pacific Highway","LOCATION":"approx.160m north of Entertainment Road","SURVEY_DATE":"Mon, 17 Aug 2020 00:00:00 GMT","VPD":11180,"DIRECTION_1A":"North 5274","DIRECTION_2A":"South 5907"}},{"type":"Feature","id":282022,"geometry":{"type":"Point","coordinates":[153.307110833068,-27.8901653432391,0]},"properties":{"OBJECTID":282022,"GlobalID":"0a3da774-0e9d-4124-8abc-90193f23b2d7","SUBURB":"Oxenford","STREET":"Tamborine Oxenford Road","LOCATION":"Between Riversdale Road and Regatta Avenue","SURVEY_DATE":"Mon, 17 Aug 2020 00:00:00 GMT","VPD":18572,"DIRECTION_1A":"East 8970","DIRECTION_2A":"West 9602"}},{"type":"Feature","id":282023,"geometry":{"type":"Point","coordinates":[153.315566383465,-27.9040581415356,0]},"properties":{"OBJECTID":282023,"GlobalID":"1fe6b6a6-c7b0-45a9-a565-e38cd919fdae","SUBURB":"Oxenford","STREET":"Entertainment Road","LOCATION":"Approx. 130m south of Michigan Drive","SURVEY_DATE":"Mon, 17 Aug 2020 00:00:00 GMT","VPD":21144,"DIRECTION_1A":"North 10047","DIRECTION_2A":"South 11097"}},{"type":"Feature","id":282024,"geometry":{"type":"Point","coordinates":[153.314462602571,-27.9024081877302,0]},"properties":{"OBJECTID":282024,"GlobalID":"d238d30c-2550-48d4-9a70-3a2cd8536262","SUBURB":"Oxenford","STREET":"Michigan Drive","LOCATION":"Approx. 60m north of Entertainment Road","SURVEY_DATE":"Mon, 17 Aug 2020 00:00:00 GMT","VPD":10311,"DIRECTION_1A":"North 4999","DIRECTION_2A":"South 5312"}},{"type":"Feature","id":282025,"geometry":{"type":"Point","coordinates":[153.29698161127,-27.8964591699517,0]},"properties":{"OBJECTID":282025,"GlobalID":"d1ecc1f0-49d7-42b9-98d3-5f6274f4154f","SUBURB":"Oxenford","STREET":"Michigan Drive","LOCATION":"Approx.40m east of Tamborine Oxenford Road","SURVEY_DATE":"Mon, 17 Aug 2020 00:00:00 GMT","VPD":6521,"DIRECTION_1A":"East 3400","DIRECTION_2A":"West 3121"}},{"type":"Feature","id":282026,"geometry":{"type":"Point","coordinates":[153.400486465593,-27.9966659648167,0]},"properties":{"OBJECTID":282026,"GlobalID":"89c08d21-6101-44e1-9d17-6cb772c0fcd2","SUBURB":"Bundall","STREET":"Slatyer Avenue","LOCATION":"Approx.50m west of Camellia Avenue","SURVEY_DATE":"Mon, 24 Aug 2020 00:00:00 GMT","VPD":16816,"DIRECTION_1A":"East 8127","DIRECTION_2A":"West 8690"}},{"type":"Feature","id":282027,"geometry":{"type":"Point","coordinates":[153.352662828346,-28.0140149111832,0]},"properties":{"OBJECTID":282027,"GlobalID":"9b485642-d3f9-4509-832d-429f75195ba2","SUBURB":"Carrara","STREET":"Pappas Way","LOCATION":"Between Guthrie Parade and Rosella Court","SURVEY_DATE":"Mon, 24 Aug 2020 00:00:00 GMT","VPD":3997,"DIRECTION_1A":"North 1905","DIRECTION_2A":"South 2093"}},{"type":"Feature","id":282028,"geometry":{"type":"Point","coordinates":[153.39129905413,-28.0087589686222,0]},"properties":{"OBJECTID":282028,"GlobalID":"86eae348-ed05-4bda-98fe-6ac9da259dab","SUBURB":"Benowa","STREET":"Benowa Road","LOCATION":"Between Ashmore Road and Carrara Street","SURVEY_DATE":"Mon, 24 Aug 2020 00:00:00 GMT","VPD":8999,"DIRECTION_1A":"North 4003","DIRECTION_2A":"South 4997"}},{"type":"Feature","id":282029,"geometry":{"type":"Point","coordinates":[153.431021991151,-28.0337680796785,0]},"properties":{"OBJECTID":282029,"GlobalID":"b41aaf0c-5c9f-4507-846f-9be080b69546","SUBURB":"Broadbeach","STREET":"Gold Coast Highway","LOCATION":"Between Elizabeth Avenue and Margaret Avenue","SURVEY_DATE":"Mon, 24 Aug 2020 00:00:00 GMT","VPD":28520,"DIRECTION_1A":"North 14924","DIRECTION_2A":"South 13596"}},{"type":"Feature","id":282030,"geometry":{"type":"Point","coordinates":[153.415117291609,-28.030636742674,0]},"properties":{"OBJECTID":282030,"GlobalID":"08a87ca2-7083-4157-99a4-ff9c7f53a6cd","SUBURB":"Broadbeach Waters","STREET":"Rio Vista Boulevard","LOCATION":"Between Rudd Street and T E Peters Drive","SURVEY_DATE":"Mon, 24 Aug 2020 00:00:00 GMT","VPD":18535,"DIRECTION_1A":"North 9292","DIRECTION_2A":"South 9243"}},{"type":"Feature","id":282031,"geometry":{"type":"Point","coordinates":[153.2316903516,-27.7526955447111,0]},"properties":{"OBJECTID":282031,"GlobalID":"8235c1d6-dee7-42fb-afcd-2221c4951bf6","SUBURB":"Ormeau","STREET":"Darlington Drive","LOCATION":"East of Pearson Road","SURVEY_DATE":"Mon, 17 Aug 2020 00:00:00 GMT","VPD":5595,"DIRECTION_1A":"East 2967","DIRECTION_2A":"West 2628"}},{"type":"Feature","id":282032,"geometry":{"type":"Point","coordinates":[153.42905888133,-27.9802416456445,0]},"properties":{"OBJECTID":282032,"GlobalID":"8a8b31c5-903e-4a06-b64f-8cb8a746f995","SUBURB":"Main Beach","STREET":"Main Beach Parade","LOCATION":"Between Woodroffe Avenue and Breaker Street","SURVEY_DATE":"Mon, 14 Jan 2019 00:00:00 GMT","VPD":11882,"DIRECTION_1A":"North 6033","DIRECTION_2A":"South 5849"}},{"type":"Feature","id":282033,"geometry":{"type":"Point","coordinates":[153.373893697198,-27.9611445636167,0]},"properties":{"OBJECTID":282033,"GlobalID":"37df67c6-77de-4f4e-91d6-34959c3bf67b","SUBURB":"Parkwood","STREET":"Henry Cotton Drive","LOCATION":"Adjacent property no.108","SURVEY_DATE":"Tue, 14 Jul 2020 00:00:00 GMT","VPD":3923,"DIRECTION_1A":"North 1923","DIRECTION_2A":"South 2001"}},{"type":"Feature","id":282034,"geometry":{"type":"Point","coordinates":[153.424663945176,-27.9750156794785,0]},"properties":{"OBJECTID":282034,"GlobalID":"609d561d-3b37-46f6-8e59-0ead3b7b3b60","SUBURB":"Main Beach","STREET":"Waterways Drive","LOCATION":"Between pedestrian signals and Main Beach Parade","SURVEY_DATE":"Mon, 14 Jan 2019 00:00:00 GMT","VPD":29693,"DIRECTION_1A":"North 14267","DIRECTION_2A":"South 15426"}},{"type":"Feature","id":282035,"geometry":{"type":"Point","coordinates":[153.29814295469,-27.8528581763413,0]},"properties":{"OBJECTID":282035,"GlobalID":"f738057a-731d-4caf-95f6-b70b4ef5ca62","SUBURB":"Upper Coomera","STREET":"Hans Street","LOCATION":"Adjacent property no.29","SURVEY_DATE":"Mon, 17 Aug 2020 00:00:00 GMT","VPD":264,"DIRECTION_1A":"North 106","DIRECTION_2A":"South 158"}},{"type":"Feature","id":282036,"geometry":{"type":"Point","coordinates":[153.297791790094,-27.8520910197139,0]},"properties":{"OBJECTID":282036,"GlobalID":"5d12f630-4229-4115-b983-7bcb590fdffd","SUBURB":"Upper Coomera","STREET":"Hans Street","LOCATION":"Adjacent property no.26","SURVEY_DATE":"Mon, 17 Aug 2020 00:00:00 GMT","VPD":302,"DIRECTION_1A":"East 173","DIRECTION_2A":"West 129"}},{"type":"Feature","id":282037,"geometry":{"type":"Point","coordinates":[153.456271933168,-28.0900628469959,0]},"properties":{"OBJECTID":282037,"GlobalID":"1786b5b0-9ebb-47ff-9d83-51724e1febf2","SUBURB":"Burleigh Heads","STREET":"Goodwin Terrace","LOCATION":"Adjacent property no.24","SURVEY_DATE":"Tue, 14 Jul 2020 00:00:00 GMT","VPD":5607,"DIRECTION_1A":"East 2762","DIRECTION_2A":"West 2845"}},{"type":"Feature","id":282038,"geometry":{"type":"Point","coordinates":[153.43249298094,-28.0203148494517,0]},"properties":{"OBJECTID":282038,"GlobalID":"74d0c7cc-ae63-413f-85e2-12fc4297b85c","SUBURB":"Broadbeach","STREET":"Old Burleigh Road","LOCATION":"North of Armrick Avenue","SURVEY_DATE":"Mon, 17 Aug 2020 00:00:00 GMT","VPD":7480,"DIRECTION_1A":"North 3746","DIRECTION_2A":"South 3733"}},{"type":"Feature","id":282039,"geometry":{"type":"Point","coordinates":[153.399541419003,-27.9646346508751,0]},"properties":{"OBJECTID":282039,"GlobalID":"814692c9-ef74-422c-ac13-d6e432986dfa","SUBURB":"Southport","STREET":"Johnston Street","LOCATION":"Adjacent property no.117","SURVEY_DATE":"Mon, 17 Aug 2020 00:00:00 GMT","VPD":6745,"DIRECTION_1A":"East 3461","DIRECTION_2A":"West 3284"}},{"type":"Feature","id":282040,"geometry":{"type":"Point","coordinates":[153.400271947459,-27.9651588474208,0]},"properties":{"OBJECTID":282040,"GlobalID":"115f7838-706f-4535-abba-62d68217c81c","SUBURB":"Southport","STREET":"Beale Street","LOCATION":"Adjacent property no.30","SURVEY_DATE":"Mon, 17 Aug 2020 00:00:00 GMT","VPD":701,"DIRECTION_1A":"North 353","DIRECTION_2A":"South 348"}},{"type":"Feature","id":282041,"geometry":{"type":"Point","coordinates":[153.381187402197,-27.9233371562113,0]},"properties":{"OBJECTID":282041,"GlobalID":"9a25e71c-cc86-4ab7-a199-fb5ce33ce69e","SUBURB":"Coombabah","STREET":"Pine Ridge Road","LOCATION":"Adjacent property no.555","SURVEY_DATE":"Mon, 24 Aug 2020 00:00:00 GMT","VPD":15777,"DIRECTION_1A":"North 8125","DIRECTION_2A":"South 7651"}},{"type":"Feature","id":282042,"geometry":{"type":"Point","coordinates":[153.460389562047,-28.1266769837056,0]},"properties":{"OBJECTID":282042,"GlobalID":"238cec47-b082-4e43-8d7c-5bc99a9bd307","SUBURB":"Currumbin","STREET":"Crest Drive","LOCATION":"Adjacent property no.6","SURVEY_DATE":"Mon, 03 Dec 2018 00:00:00 GMT","VPD":1231,"DIRECTION_1A":"East 602","DIRECTION_2A":"West 629"}},{"type":"Feature","id":282043,"geometry":{"type":"Point","coordinates":[153.413243103418,-27.9910120236654,0]},"properties":{"OBJECTID":282043,"GlobalID":"3419214a-3be9-489b-a5be-faafc69bb764","SUBURB":"Southport","STREET":"Skiff Street","LOCATION":"Adjacent property no.21","SURVEY_DATE":"Mon, 26 Nov 2018 00:00:00 GMT","VPD":1005,"DIRECTION_1A":"East 463","DIRECTION_2A":"West 541"}},{"type":"Feature","id":282044,"geometry":{"type":"Point","coordinates":[153.378658628974,-27.8712463295738,0]},"properties":{"OBJECTID":282044,"GlobalID":"a7f29a8c-5dd2-4b4d-92c0-a9c54e080dea","SUBURB":"Hope Island","STREET":"Boykambil Esplanade North","LOCATION":"Adjacent property no.76","SURVEY_DATE":"Mon, 26 Nov 2018 00:00:00 GMT","VPD":199,"DIRECTION_1A":"East 53","DIRECTION_2A":"West 146"}},{"type":"Feature","id":282045,"geometry":{"type":"Point","coordinates":[153.402563425294,-27.9978618607105,0]},"properties":{"OBJECTID":282045,"GlobalID":"a01619ae-1345-4e57-b9a0-d64cd4ad1685","SUBURB":"Bundall","STREET":"Heeb Street","LOCATION":"Adjacent property no.44","SURVEY_DATE":"Mon, 26 Nov 2018 00:00:00 GMT","VPD":741,"DIRECTION_1A":"East 153","DIRECTION_2A":"West 588"}},{"type":"Feature","id":282046,"geometry":{"type":"Point","coordinates":[153.404137456699,-27.904610171371,0]},"properties":{"OBJECTID":282046,"GlobalID":"5ce3e3ce-dbdc-446b-882a-2e679fb523d1","SUBURB":"Runaway Bay","STREET":"Howard Street","LOCATION":"Adjacent property no.28","SURVEY_DATE":"Tue, 27 Nov 2018 00:00:00 GMT","VPD":793,"DIRECTION_1A":"East 398","DIRECTION_2A":"West 395"}},{"type":"Feature","id":282047,"geometry":{"type":"Point","coordinates":[153.38139420414,-28.0802541203284,0]},"properties":{"OBJECTID":282047,"GlobalID":"fd0b2911-694c-4e5a-b74b-23cb446d3ef3","SUBURB":"Robina","STREET":"Laver Drive","LOCATION":"Adjacent Villa Serena Aged Care","SURVEY_DATE":"Fri, 30 Nov 2018 00:00:00 GMT","VPD":11060,"DIRECTION_1A":"North 5055","DIRECTION_2A":"South 6005"}},{"type":"Feature","id":282048,"geometry":{"type":"Point","coordinates":[153.393054175299,-27.8890977293853,0]},"properties":{"OBJECTID":282048,"GlobalID":"681881fa-fdea-4c82-b002-f5a5e728398f","SUBURB":"Hollywell","STREET":"Matthew Flinders Drive","LOCATION":"Between Paradise Parade and Bayview Street","SURVEY_DATE":"Fri, 09 Jun 2017 00:00:00 GMT","VPD":4372,"DIRECTION_1A":"East 2098","DIRECTION_2A":"West 2274"}},{"type":"Feature","id":282049,"geometry":{"type":"Point","coordinates":[153.342925266332,-27.8418176872798,0]},"properties":{"OBJECTID":282049,"GlobalID":"b58a2aa2-24d8-42de-b760-ba7a0d04575f","SUBURB":"Coomera","STREET":"Amity Road","LOCATION":"Between Daintree Drive and Edwardson Drive","SURVEY_DATE":"Thu, 08 Jun 2017 00:00:00 GMT","VPD":3716,"DIRECTION_1A":"North 1937","DIRECTION_2A":"South 1779"}},{"type":"Feature","id":282050,"geometry":{"type":"Point","coordinates":[153.429738049379,-27.9899551319483,0]},"properties":{"OBJECTID":282050,"GlobalID":"023455d4-60a4-42bc-b322-398468965520","SUBURB":"Main Beach","STREET":"Main Beach Parade","LOCATION":"Between Ferny Avenue and The Esplanade","SURVEY_DATE":"Mon, 14 Jan 2019 00:00:00 GMT","VPD":12469,"DIRECTION_1A":"North 6828","DIRECTION_2A":"South 5640"}},{"type":"Feature","id":282051,"geometry":{"type":"Point","coordinates":[153.295702046838,-27.8176484676951,0]},"properties":{"OBJECTID":282051,"GlobalID":"482213cb-8d70-4789-9de5-91edbc76394d","SUBURB":"Pimpama","STREET":"Old Pacific Highway","LOCATION":"Between Pimpama Depot and Yawalph Road overpass","SURVEY_DATE":"Tue, 08 May 2018 00:00:00 GMT","VPD":1831,"DIRECTION_1A":"North 952","DIRECTION_2A":"South 879"}},{"type":"Feature","id":282052,"geometry":{"type":"Point","coordinates":[153.397664890363,-27.9081915878559,0]},"properties":{"OBJECTID":282052,"GlobalID":"848ca052-118d-4bff-b911-56c0899375c0","SUBURB":"Runaway Bay","STREET":"Morala Avenue","LOCATION":"Adjacent property no.237","SURVEY_DATE":"Tue, 27 Nov 2018 00:00:00 GMT","VPD":4810,"DIRECTION_1A":"North 2580","DIRECTION_2A":"South 2230"}},{"type":"Feature","id":282053,"geometry":{"type":"Point","coordinates":[153.292569559248,-27.820323865709,0]},"properties":{"OBJECTID":282053,"GlobalID":"b5f58f66-55ca-4ef4-ad14-b24a1d817be1","SUBURB":"Pimpama","STREET":"Yawalpah Road","LOCATION":"Between Attenborough Road and Salzburg Road","SURVEY_DATE":"Tue, 24 Apr 2018 00:00:00 GMT","VPD":21201,"DIRECTION_1A":"East 10598","DIRECTION_2A":"West 10603"}},{"type":"Feature","id":282054,"geometry":{"type":"Point","coordinates":[153.296731848305,-27.8209799240722,0]},"properties":{"OBJECTID":282054,"GlobalID":"9e3f31b5-4c93-444a-a7cd-202f2ab0519c","SUBURB":"Pimpama","STREET":"Yawalpah Road","LOCATION":"Between Salzburg Road and rail line","SURVEY_DATE":"Tue, 24 Apr 2018 00:00:00 GMT","VPD":22008,"DIRECTION_1A":"East 10999","DIRECTION_2A":"West 11009"}},{"type":"Feature","id":282055,"geometry":{"type":"Point","coordinates":[153.310872823879,-27.8231668168445,0]},"properties":{"OBJECTID":282055,"GlobalID":"483608f0-e315-4c81-a111-9035686b73f6","SUBURB":"Pimpama","STREET":"Yawalpah Road","LOCATION":"Between Gawthern Drive and Mirinae Circuit","SURVEY_DATE":"Tue, 24 Apr 2018 00:00:00 GMT","VPD":15924,"DIRECTION_1A":"East 8165","DIRECTION_2A":"West 7760"}},{"type":"Feature","id":282056,"geometry":{"type":"Point","coordinates":[153.321011436117,-27.824806027128,0]},"properties":{"OBJECTID":282056,"GlobalID":"ab2745e5-1644-44fd-85aa-334c191693c5","SUBURB":"Pimpama","STREET":"Yawalpah Road","LOCATION":"Between Dixon Drive and Cunningham Drive North","SURVEY_DATE":"Tue, 24 Apr 2018 00:00:00 GMT","VPD":9246,"DIRECTION_1A":"East 4852","DIRECTION_2A":"West 4394"}},{"type":"Feature","id":282057,"geometry":{"type":"Point","coordinates":[153.257294544603,-27.9137509425578,0]},"properties":{"OBJECTID":282057,"GlobalID":"7a375e4c-5553-4d7a-bc88-92536838932b","SUBURB":"Wongawallan","STREET":"Kriedeman Road","LOCATION":"Between Gladrose Crescent and Memorial Drive","SURVEY_DATE":"Tue, 02 May 2017 00:00:00 GMT","VPD":3494,"DIRECTION_1A":"North 1642","DIRECTION_2A":"South 1853"}},{"type":"Feature","id":282058,"geometry":{"type":"Point","coordinates":[153.260820528716,-27.9346734950405,0]},"properties":{"OBJECTID":282058,"GlobalID":"e265d990-acfe-4ad5-8c83-15354a4bb231","SUBURB":"Guanaba","STREET":"Birds Road","LOCATION":"Between Coomera River causeway and property no.110","SURVEY_DATE":"Tue, 02 May 2017 00:00:00 GMT","VPD":3809,"DIRECTION_1A":"East 2008","DIRECTION_2A":"West 1801"}},{"type":"Feature","id":282059,"geometry":{"type":"Point","coordinates":[153.415210273143,-28.0655620284677,0]},"properties":{"OBJECTID":282059,"GlobalID":"6115ad2f-7c3b-487a-8a66-2bc176eb6430","SUBURB":"Robina","STREET":"Newport Drive","LOCATION":"Adjacent property no.2","SURVEY_DATE":"Thu, 09 Nov 2017 00:00:00 GMT","VPD":1434,"DIRECTION_1A":"North 707","DIRECTION_2A":"South 727"}},{"type":"Feature","id":282060,"geometry":{"type":"Point","coordinates":[153.385571349864,-28.0082311331762,0]},"properties":{"OBJECTID":282060,"GlobalID":"3a237319-a518-481e-9dbe-ef8d0254f833","SUBURB":"Ashmore","STREET":"Gold Coast Botanical Gardens ring road","LOCATION":"On the Northwestern causeway","SURVEY_DATE":"Mon, 10 Apr 2017 00:00:00 GMT","VPD":745,"DIRECTION_1A":"North 739","DIRECTION_2A":"South 6"}},{"type":"Feature","id":282061,"geometry":{"type":"Point","coordinates":[153.417065312251,-28.0975474284577,0]},"properties":{"OBJECTID":282061,"GlobalID":"c67a591b-5759-4ade-990c-a85e4ac9cbe7","SUBURB":"Varsity Lakes","STREET":"Grevillea Drive","LOCATION":"Adjacent property no.21","SURVEY_DATE":"Wed, 08 Nov 2017 00:00:00 GMT","VPD":919,"DIRECTION_1A":"East 530","DIRECTION_2A":"West 389"}},{"type":"Feature","id":282062,"geometry":{"type":"Point","coordinates":[153.352495998249,-28.0394422309796,0]},"properties":{"OBJECTID":282062,"GlobalID":"0dd61c81-04e5-4c62-92ba-6511c1c3c695","SUBURB":"Worongary","STREET":"Hinkler Drive","LOCATION":"Adjacent property no.403","SURVEY_DATE":"Wed, 08 Nov 2017 00:00:00 GMT","VPD":3915,"DIRECTION_1A":"North 1998","DIRECTION_2A":"South 1917"}},{"type":"Feature","id":282063,"geometry":{"type":"Point","coordinates":[153.436170937437,-28.088604523701,0]},"properties":{"OBJECTID":282063,"GlobalID":"5e9e841c-5993-4e0c-bc59-568a17e1955d","SUBURB":"Burleigh Waters","STREET":"Dunlin Drive","LOCATION":"Adjacent property no.69","SURVEY_DATE":"Wed, 08 Nov 2017 00:00:00 GMT","VPD":6016,"DIRECTION_1A":"North 2953","DIRECTION_2A":"South 3064"}},{"type":"Feature","id":282064,"geometry":{"type":"Point","coordinates":[153.282091237713,-27.8839658249586,0]},"properties":{"OBJECTID":282064,"GlobalID":"273cd655-8363-4c55-afc3-ef53dc749bfb","SUBURB":"Upper Coomera","STREET":"Rose Valley Drive","LOCATION":"North of Lysterfield Rise","SURVEY_DATE":"Tue, 31 Oct 2017 00:00:00 GMT","VPD":2686,"DIRECTION_1A":"North 1301","DIRECTION_2A":"South 1384"}},{"type":"Feature","id":282065,"geometry":{"type":"Point","coordinates":[153.357873927981,-28.0797721030336,0]},"properties":{"OBJECTID":282065,"GlobalID":"40b4c361-82e9-4435-96a9-356e5f81323d","SUBURB":"Mudgeeraba","STREET":"Cobai Drive","LOCATION":"Adjacent property no.67","SURVEY_DATE":"Thu, 09 Nov 2017 00:00:00 GMT","VPD":2553,"DIRECTION_1A":"East 1267","DIRECTION_2A":"West 1286"}},{"type":"Feature","id":282066,"geometry":{"type":"Point","coordinates":[153.438950082627,-28.0488320551812,0]},"properties":{"OBJECTID":282066,"GlobalID":"ee8ac688-6d8d-47f2-bf17-58934095293c","SUBURB":"Mermaid Beach","STREET":"Hedges Avenue","LOCATION":"North of Alfred Street","SURVEY_DATE":"Thu, 09 Nov 2017 00:00:00 GMT","VPD":4522,"DIRECTION_1A":"North 4227","DIRECTION_2A":"South 295"}},{"type":"Feature","id":282067,"geometry":{"type":"Point","coordinates":[153.414719394975,-28.0169036536442,0]},"properties":{"OBJECTID":282067,"GlobalID":"bea06429-0e50-4303-8dc0-c736d89f05b5","SUBURB":"Broadbeach Waters","STREET":"Monaco Street","LOCATION":"Adjacent property no.164","SURVEY_DATE":"Thu, 09 Nov 2017 00:00:00 GMT","VPD":2651,"DIRECTION_1A":"East 1286","DIRECTION_2A":"West 1365"}},{"type":"Feature","id":282068,"geometry":{"type":"Point","coordinates":[153.418593931153,-28.0214732563923,0]},"properties":{"OBJECTID":282068,"GlobalID":"971be8ea-8c82-483c-a91f-aff8b02e8780","SUBURB":"Mermaid Waters","STREET":"Rio Vista Boulevard","LOCATION":"Adjacent property no.40","SURVEY_DATE":"Wed, 08 Nov 2017 00:00:00 GMT","VPD":9415,"DIRECTION_1A":"North 5359","DIRECTION_2A":"South 4056"}},{"type":"Feature","id":282069,"geometry":{"type":"Point","coordinates":[153.407376634399,-28.05864440464,0]},"properties":{"OBJECTID":282069,"GlobalID":"64a69845-7309-44b1-bf49-3b4b9aeb4b69","SUBURB":"Robina","STREET":"Ron Penhaligon Way","LOCATION":"Adjacent property no.165","SURVEY_DATE":"Mon, 06 Nov 2017 00:00:00 GMT","VPD":6514,"DIRECTION_1A":"North 3440","DIRECTION_2A":"South 3075"}},{"type":"Feature","id":282070,"geometry":{"type":"Point","coordinates":[153.349078472274,-28.080012509453,0]},"properties":{"OBJECTID":282070,"GlobalID":"ab9504ec-28a7-4cc5-9976-da18314cfd22","SUBURB":"Mudgeeraba","STREET":"Wallandra Road","LOCATION":"Adjacent property no.148","SURVEY_DATE":"Thu, 09 Nov 2017 00:00:00 GMT","VPD":3634,"DIRECTION_1A":"East 1785","DIRECTION_2A":"West 1849"}},{"type":"Feature","id":282071,"geometry":{"type":"Point","coordinates":[153.339095601205,-27.9154523025907,0]},"properties":{"OBJECTID":282071,"GlobalID":"f55d89ff-942e-4c75-87d7-ba2386894fa5","SUBURB":"Helensvale","STREET":"Mildura Drive","LOCATION":"Adjacent property no.28","SURVEY_DATE":"Sat, 18 May 2019 00:00:00 GMT","VPD":3568,"DIRECTION_1A":"East 1943","DIRECTION_2A":"West 1625"}},{"type":"Feature","id":282072,"geometry":{"type":"Point","coordinates":[153.32089400371,-27.8511243016112,0]},"properties":{"OBJECTID":282072,"GlobalID":"ea5b226f-6790-4d72-9de1-57e5b8643fcb","SUBURB":"Coomera","STREET":"George Alexander Way","LOCATION":"Approx.120m north of Foxwell Road","SURVEY_DATE":"Sat, 18 May 2019 00:00:00 GMT","VPD":4370,"DIRECTION_1A":"North 2134","DIRECTION_2A":"South 2236"}},{"type":"Feature","id":282073,"geometry":{"type":"Point","coordinates":[153.344960785148,-28.0912477770891,0]},"properties":{"OBJECTID":282073,"GlobalID":"ba1ca6d3-0533-4302-b1a7-8a11c7d3c1ce","SUBURB":"Mudgeeraba","STREET":"Tarrant Drive","LOCATION":"Adjacent property no.14","SURVEY_DATE":"Sun, 19 May 2019 00:00:00 GMT","VPD":510,"DIRECTION_1A":"North 246","DIRECTION_2A":"South 264"}},{"type":"Feature","id":282074,"geometry":{"type":"Point","coordinates":[153.427682567076,-27.9956206211859,0]},"properties":{"OBJECTID":282074,"GlobalID":"3d657def-274c-49eb-af2e-d09911600775","SUBURB":"Surfers Paradise","STREET":"Gold Coast Highway","LOCATION":"Between Staghorn Avenue and Cypress Avenue","SURVEY_DATE":"Mon, 14 Jan 2019 00:00:00 GMT","VPD":35137,"DIRECTION_1A":"North 19780","DIRECTION_2A":"South 15356"}},{"type":"Feature","id":282075,"geometry":{"type":"Point","coordinates":[153.429778596283,-28.0284936641321,0]},